store_id,name,url,street_address,city,state,zip_code,country,phone_number_1,phone_number_2,fax_1,fax_2,email_1,email_2,website,open_hours,latitude,longitude,facebook,twitter,instagram,pinterest,youtube
1990,Mayaguez Store,https://www.cymbalstore.com/store/2067/mayaguez-pr/details,975 Ave Hostos Ste 2100,Mayaguez,PR,680,PR,787-265-1099,,,,,,,,18.154276,-67.140516,,,,,
2267,Ware Supercenter,https://www.cymbalstore.com/store/2386/ware-ma/details,352 Palmer Rd,Ware,MA,1082,US,413-967-0040,,,,,,,"monday - friday : 06:00-24:00, saturday : 06:00-24:00, sunday : 06:00-24:00",42.237645,-72.27897,,,,,
4359,Ponce Supercenter,https://www.cymbalstore.com/store/5793/ponce-pr/details,1800 Carr# 14,Ponce,PR,780,PR,787-842-0420,,,,,,,,18.0446117,-66.577871,,,,,
1,Conway Supercenter,https://www.cymbalstore.com/store/5/conway-ar/details,1155 Hwy 65 North,Conway,AR,72032,US,501-329-0023,,,,,,,"monday - friday : 00:00-24:00, saturday : 00:00-24:00, sunday : 00:00-24:00",35.10866,-92.436905,,,,,
2,Sikeston Supercenter,https://www.cymbalstore.com/store/9/sikeston-mo/details,1303 S Main St,Sikeston,MO,63801,US,573-472-3020,,,,,,,"monday - friday : 00:00-24:00, saturday : 00:00-24:00, sunday : 00:00-24:00",36.857394,-89.586051,,,,,
3,Tahlequah Supercenter,https://www.cymbalstore.com/store/10/tahlequah-ok/details,2020 S Muskogee Ave,Tahlequah,OK,74464,US,918-456-8804,,,,,,,"monday - friday : 00:00-24:00, saturday : 00:00-24:00, sunday : 00:00-24:00",35.888765,-94.979859,,,,,
4,Mountain Home Supercenter,https://www.cymbalstore.com/store/11/mountain-home-ar/details,65 Wal Mart Dr,Mountain Home,AR,72653,US,870-492-9299,,,,,,,"monday - friday : 00:00-24:00, saturday : 00:00-24:00, sunday : 00:00-24:00",36.3549565,-92.3410256,,,,,
5,Claremore Supercenter,https://www.cymbalstore.com/store/12/claremore-ok/details,1500 S Lynn Riggs Blvd,Claremore,OK,74017,US,918-341-2765,,,,,,,"monday - friday : 00:00-24:00, saturday : 00:00-24:00, sunday : 00:00-24:00",36.293955,-95.627125,,,,,
6,Carthage Supercenter,https://www.cymbalstore.com/store/13/carthage-mo/details,2705 Grand Ave,Carthage,MO,64836,US,417-358-3000,,,,,,,"monday - friday : 00:00-24:00, saturday : 00:00-24:00, sunday : 00:00-24:00",37.141958,-94.313292,,,,,
7,Rogers Supercenter,https://www.cymbalstore.com/store/1/rogers-ar/details,2110 W Walnut St,Rogers,AR,72756,US,479-636-3222,,,,,,,"monday - friday : 00:00-24:00, saturday : 00:00-24:00, sunday : 00:00-24:00",36.3313,-94.149024,,,,,
8,Siloam Springs Supercenter,https://www.cymbalstore.com/store/4/siloam-springs-ar/details,2901 Highway 412 E,Siloam Springs,AR,72761,US,479-524-5101,,,,,,,"monday - friday : 00:00-24:00, saturday : 00:00-24:00, sunday : 00:00-24:00",36.183467,-94.512608,,,,,
9,Lebanon Supercenter,https://www.cymbalstore.com/store/14/lebanon-mo/details,1800 S Jefferson Ave,Lebanon,MO,65536,US,417-588-2268,,,,,,,"monday - friday : 00:00-24:00, saturday : 00:00-24:00, sunday : 00:00-24:00",37.663493,-92.645849,,,,,
10,West Plains Supercenter,https://www.cymbalstore.com/store/15/west-plains-mo/details,1310 Preacher Roe Blvd,West Plains,MO,65775,US,417-257-2800,,,,,,,"monday - friday : 00:00-24:00, saturday : 00:00-24:00, sunday : 00:00-24:00",36.714712,-91.870322,,,,,
11,Sherwood Supercenter,https://www.cymbalstore.com/store/7/sherwood-ar/details,9053 Highway 107,Sherwood,AR,72120,US,501-833-0972,,,,,,,"monday - friday : 00:00-24:00, saturday : 00:00-24:00, sunday : 00:00-24:00",34.838767,-92.236838,,,,,
12,Harrison Supercenter,https://www.cymbalstore.com/store/2/harrison-ar/details,161 N Walmart Dr,Harrison,AR,72601,US,870-365-8400,,,,,,,"monday - friday : 00:00-24:00, saturday : 00:00-24:00, sunday : 00:00-24:00",36.269042,-93.139074,,,,,
13,Commerce Supercenter,https://www.cymbalstore.com/store/3/commerce-ga/details,30983 Highway 441 S,Commerce,GA,30529,US,706-335-7563,,,,,,,"monday - friday : 00:00-24:00, saturday : 00:00-24:00, sunday : 00:00-24:00",34.247854,-83.456616,,,,,
14,Van Buren Supercenter,https://www.cymbalstore.com/store/16/van-buren-ar/details,2214 Fayetteville Rd,Van Buren,AR,72956,US,479-474-2314,,,,,,,"monday - friday : 00:00-24:00, saturday : 00:00-24:00, sunday : 00:00-24:00",35.469113,-94.353427,,,,,
15,Newport Supercenter,https://www.cymbalstore.com/store/18/newport-ar/details,1211 Highway 367 N,Newport,AR,72112,US,870-523-2500,,,,,,,"monday - friday : 06:00-23:00, saturday : 06:00-23:00, sunday : 06:00-23:00",35.618058,-91.254954,,,,,
16,Morrilton Supercenter,https://www.cymbalstore.com/store/8/morrilton-ar/details,1621 North Business 9,Morrilton,AR,72110,US,501-354-0290,,,,,,,"monday - friday : 00:00-24:00, saturday : 00:00-24:00, sunday : 00:00-24:00",35.168795,-92.726727,,,,,
17,Neosho Supercenter,https://www.cymbalstore.com/store/17/neosho-mo/details,3200 Lusk Dr,Neosho,MO,64850,US,417-451-5544,,,,,,,"monday - friday : 00:00-24:00, saturday : 00:00-24:00, sunday : 00:00-24:00",36.839161,-94.397282,,,,,
18,Saint Robert Supercenter,https://www.cymbalstore.com/store/21/saint-robert-mo/details,185 Saint Robert Blvd,Saint Robert,MO,65584,US,573-336-5103,,,,,,,"monday - friday : 00:00-24:00, saturday : 00:00-24:00, sunday : 00:00-24:00",37.825154,-92.152265,,,,,
19,Poplar Bluff Supercenter,https://www.cymbalstore.com/store/19/poplar-bluff-mo/details,333 S Westwood Blvd,Poplar Bluff,MO,63901,US,573-686-6420,,,,,,,"monday - friday : 06:00-24:00, saturday : 06:00-24:00, sunday : 06:00-24:00",36.755728,-90.411818,,,,,
20,Pryor Supercenter,https://www.cymbalstore.com/store/22/pryor-ok/details,4901 S Mill St,Pryor,OK,74361,US,918-825-6000,,,,,,,"monday - friday : 00:00-24:00, saturday : 00:00-24:00, sunday : 00:00-24:00",36.262476,-95.330024,,,,,
21,Clinton Supercenter,https://www.cymbalstore.com/store/20/clinton-mo/details,1712 E Ohio St,Clinton,MO,64735,US,660-885-5536,,,,,,,"monday - friday : 00:00-24:00, saturday : 00:00-24:00, sunday : 00:00-24:00",38.362772,-93.750585,,,,,
22,Jacksonville Supercenter,https://www.cymbalstore.com/store/24/jacksonville-ar/details,2000 John Harden Dr,Jacksonville,AR,72076,US,501-985-8731,,,,,,,"monday - friday : 00:00-24:00, saturday : 00:00-24:00, sunday : 00:00-24:00",34.885098,-92.11255,,,,,
23,Leavenworth Supercenter,https://www.cymbalstore.com/store/26/leavenworth-ks/details,5000 10th Ave,Leavenworth,KS,66048,US,913-250-0182,,,,,,,"monday - friday : 00:00-24:00, saturday : 00:00-24:00, sunday : 00:00-24:00",39.268764,-94.930386,,,,,
24,Ruston Supercenter,https://www.cymbalstore.com/store/23/ruston-la/details,1201 N Service Rd E,Ruston,LA,71270,US,318-251-1168,,,,,,,"monday - friday : 00:00-24:00, saturday : 00:00-24:00, sunday : 00:00-24:00",32.543518,-92.624043,,,,,
25,Mexico Supercenter,https://www.cymbalstore.com/store/25/mexico-mo/details,4820 S Clark St,Mexico,MO,65265,US,573-581-4500,,,,,,,"monday - friday : 00:00-24:00, saturday : 00:00-24:00, sunday : 00:00-24:00",39.120508,-91.890515,,,,,
26,Salem Supercenter,https://www.cymbalstore.com/store/27/salem-mo/details,1101 W Highway 32,Salem,MO,65560,US,573-729-6151,,,,,,,"monday - friday : 00:00-24:00, saturday : 00:00-24:00, sunday : 00:00-24:00",37.634119,-91.546043,,,,,
27,Miami Supercenter,https://www.cymbalstore.com/store/28/miami-ok/details,2415 N Main St,Miami,OK,74354,US,918-542-6654,,,,,,,"monday - friday : 00:00-24:00, saturday : 00:00-24:00, sunday : 00:00-24:00",36.904509,-94.880384,,,,,
28,Dexter Supercenter,https://www.cymbalstore.com/store/30/dexter-mo/details,2025 W Business Us Highway 60,Dexter,MO,63841,US,573-624-5514,,,,,,,"monday - friday : 00:00-24:00, saturday : 00:00-24:00, sunday : 00:00-24:00",36.801185,-89.992373,,,,,
29,Poteau Supercenter,https://www.cymbalstore.com/store/31/poteau-ok/details,3108 N Broadway St,Poteau,OK,74953,US,918-647-5040,,,,,,,"monday - friday : 00:00-24:00, saturday : 00:00-24:00, sunday : 00:00-24:00",35.094581,-94.628209,,,,,
30,Branson Store,https://www.cymbalstore.com/store/32/branson-mo/details,2050 W 76 Country Blvd,Branson,MO,65616,US,417-334-5005,,,,,,,"monday - friday : 00:00-24:00, saturday : 00:00-24:00, sunday : 00:00-24:00",36.639045,-93.259769,,,,,
31,Manhattan Supercenter,https://www.cymbalstore.com/store/35/manhattan-ks/details,101 Bluemont Ave,Manhattan,KS,66502,US,785-776-4897,,,,,,,"monday - friday : 00:00-24:00, saturday : 00:00-24:00, sunday : 00:00-24:00",39.188472,-96.556204,,,,,
32,Nevada Supercenter,https://www.cymbalstore.com/store/34/nevada-mo/details,2250 Lincoln Ave,Nevada,MO,64772,US,417-667-3630,,,,,,,"monday - friday : 00:00-24:00, saturday : 00:00-24:00, sunday : 00:00-24:00",37.832201,-94.326552,,,,,
33,Nashville Supercenter,https://www.cymbalstore.com/store/33/nashville-ar/details,1710 S 4th St,Nashville,AR,71852,US,870-845-1881,,,,,,,"monday - friday : 00:00-24:00, saturday : 00:00-24:00, sunday : 00:00-24:00",33.925385,-93.857443,,,,,
34,Paragould Supercenter,https://www.cymbalstore.com/store/36/paragould-ar/details,2802 W Kingshighway,Paragould,AR,72450,US,870-236-9707,,,,,,,"monday - friday : 00:00-24:00, saturday : 00:00-24:00, sunday : 00:00-24:00",36.057305,-90.52294,,,,,
35,Farmington Supercenter,https://www.cymbalstore.com/store/37/farmington-mo/details,707 Walton Dr,Farmington,MO,63640,US,573-756-8448,,,,,,,"monday - friday : 00:00-24:00, saturday : 00:00-24:00, sunday : 00:00-24:00",37.7894913,-90.4353609,,,,,
36,Idabel Supercenter,https://www.cymbalstore.com/store/38/idabel-ok/details,1907 Se Washington St,Idabel,OK,74745,US,580-286-6696,,,,,,,"monday - friday : 00:00-24:00, saturday : 00:00-24:00, sunday : 00:00-24:00",33.898037,-94.803528,,,,,
37,Bartlesville Supercenter,https://www.cymbalstore.com/store/41/bartlesville-ok/details,4000 Se Green Country Rd,Bartlesville,OK,74006,US,918-335-6600,,,,,,,"monday - friday : 00:00-24:00, saturday : 00:00-24:00, sunday : 00:00-24:00",36.740695,-95.931584,,,,,
38,Fort Scott Supercenter,https://www.cymbalstore.com/store/39/fort-scott-ks/details,2500 S Main St,Fort Scott,KS,66701,US,620-223-2867,,,,,,,"monday - friday : 06:00-01:00, saturday : 06:00-01:00, sunday : 06:00-01:00",37.807978,-94.708671,,,,,
39,Coffeyville Supercenter,https://www.cymbalstore.com/store/42/coffeyville-ks/details,1863 Cr 5300,Coffeyville,KS,67337,US,620-251-4113,,,,,,,"monday - friday : 00:00-24:00, saturday : 00:00-24:00, sunday : 00:00-24:00",37.042359,-95.579038,,,,,
40,Moberly Supercenter,https://www.cymbalstore.com/store/40/moberly-mo/details,1301 E Highway 24,Moberly,MO,65270,US,660-263-3113,,,,,,,"monday - friday : 00:00-24:00, saturday : 00:00-24:00, sunday : 00:00-24:00",39.4476727,-92.4204522,,,,,
41,Eldon Store,https://www.cymbalstore.com/store/44/eldon-mo/details,1802 S Business 54,Eldon,MO,65026,US,573-392-3114,,,,,,,"monday - friday : 07:00-23:00, saturday : 07:00-23:00, sunday : 07:00-23:00",38.3352206,-92.5838242,,,,,
42,Jefferson City Supercenter,https://www.cymbalstore.com/store/29/jefferson-city-mo/details,724 Stadium West Blv,Jefferson City,MO,65109,US,573-635-8283,,,,,,,"monday - friday : 00:00-24:00, saturday : 00:00-24:00, sunday : 00:00-24:00",38.580049,-92.219907,,,,,
43,Junction City Supercenter,https://www.cymbalstore.com/store/43/junction-city-ks/details,521 E Chestnut St,Junction City,KS,66441,US,785-238-8229,,,,,,,"monday - friday : 00:00-24:00, saturday : 00:00-24:00, sunday : 00:00-24:00",39.018965,-96.820674,,,,,
44,Bolivar Supercenter,https://www.cymbalstore.com/store/46/bolivar-mo/details,2451 S Springfield Ave,Bolivar,MO,65613,US,417-326-8424,,,,,,,"monday - friday : 00:00-24:00, saturday : 00:00-24:00, sunday : 00:00-24:00",37.591722,-93.403975,,,,,
45,Jonesboro Supercenter,https://www.cymbalstore.com/store/45/jonesboro-ar/details,1815 E Highland Dr,Jonesboro,AR,72401,US,870-931-5001,,,,,,,"monday - friday : 00:00-24:00, saturday : 00:00-24:00, sunday : 00:00-24:00",35.81895,-90.685267,,,,,
46,Monett Supercenter,https://www.cymbalstore.com/store/48/monett-mo/details,885 E Us Highway 60,Monett,MO,65708,US,417-235-6292,,,,,,,"monday - friday : 00:00-24:00, saturday : 00:00-24:00, sunday : 00:00-24:00",36.911771,-93.903147,,,,,
47,Hot Springs Supercenter,https://www.cymbalstore.com/store/52/hot-springs-ar/details,1601 Albert Pike Rd,Hot Springs,AR,71913,US,501-624-2498,,,,,,,"monday - friday : 00:00-24:00, saturday : 00:00-24:00, sunday : 00:00-24:00",34.490929,-93.089251,,,,,
48,Vinita Supercenter,https://www.cymbalstore.com/store/50/vinita-ok/details,268 S 7th St,Vinita,OK,74301,US,918-256-7505,,,,,,,"monday - friday : 00:00-24:00, saturday : 00:00-24:00, sunday : 00:00-24:00",36.631855,-95.140418,,,,,
49,Sallisaw Supercenter,https://www.cymbalstore.com/store/47/sallisaw-ok/details,1101 W Ruth Ave,Sallisaw,OK,74955,US,918-775-4492,,,,,,,"monday - friday : 00:00-24:00, saturday : 00:00-24:00, sunday : 00:00-24:00",35.451011,-94.80181,,,,,
50,Hugo Supercenter,https://www.cymbalstore.com/store/49/hugo-ok/details,1911 E Jackson St,Hugo,OK,74743,US,580-326-6494,,,,,,,"monday - friday : 00:00-24:00, saturday : 00:00-24:00, sunday : 00:00-24:00",34.007244,-95.487949,,,,,
51,Fulton Supercenter,https://www.cymbalstore.com/store/51/fulton-mo/details,1701 N Bluff St,Fulton,MO,65251,US,573-642-6877,,,,,,,"monday - friday : 00:00-24:00, saturday : 00:00-24:00, sunday : 00:00-24:00",38.864222,-91.945748,,,,,
52,Springdale Supercenter,https://www.cymbalstore.com/store/54/springdale-ar/details,2004 S Pleasant St,Springdale,AR,72764,US,479-751-4817,,,,,,,"monday - friday : 00:00-24:00, saturday : 00:00-24:00, sunday : 00:00-24:00",36.166247,-94.146954,,,,,
53,Ava Supercenter,https://www.cymbalstore.com/store/56/ava-mo/details,1309 Nw 12th Ave,Ava,MO,65608,US,417-683-4194,,,,,,,"monday - friday : 00:00-24:00, saturday : 00:00-24:00, sunday : 00:00-24:00",36.959408,-92.676527,,,,,
54,Russellville Supercenter,https://www.cymbalstore.com/store/58/russellville-ar/details,2409 E Main St,Russellville,AR,72802,US,479-967-9777,,,,,,,"monday - friday : 00:00-24:00, saturday : 00:00-24:00, sunday : 00:00-24:00",35.280505,-93.105157,,,,,
55,Booneville Supercenter,https://www.cymbalstore.com/store/55/booneville-ar/details,1400 East Main St,Booneville,AR,72927,US,479-675-3688,,,,,,,"monday - friday : 00:00-24:00, saturday : 00:00-24:00, sunday : 00:00-24:00",35.1433678,-93.9018368,,,,,
56,Warrensburg Supercenter,https://www.cymbalstore.com/store/61/warrensburg-mo/details,301 E Cooper St,Warrensburg,MO,64093,US,660-747-1505,,,,,,,"monday - friday : 00:00-24:00, saturday : 00:00-24:00, sunday : 00:00-24:00",38.781105,-93.735334,,,,,
57,Troy Supercenter,https://www.cymbalstore.com/store/60/troy-mo/details,101 Highway 47 E,Troy,MO,63379,US,636-528-8901,,,,,,,"monday - friday : 00:00-24:00, saturday : 00:00-24:00, sunday : 00:00-24:00",38.988635,-90.982017,,,,,
58,Walnut Ridge Store,https://www.cymbalstore.com/store/57/walnut-ridge-ar/details,1600 W Main St,Walnut Ridge,AR,72476,US,870-886-6605,,,,,,,"monday - friday : 06:00-24:00, saturday : 06:00-24:00, sunday : 06:00-24:00",36.07663,-90.97439,,,,,
59,Joplin Supercenter,https://www.cymbalstore.com/store/59/joplin-mo/details,1501 S Range Line Rd,Joplin,MO,64804,US,417-781-0100,,,,,,,"monday - friday : 00:00-24:00, saturday : 00:00-24:00, sunday : 00:00-24:00",37.072928,-94.472782,,,,,
60,Blytheville Supercenter,https://www.cymbalstore.com/store/62/blytheville-ar/details,3700 E Highway 18,Blytheville,AR,72315,US,870-763-0440,,,,,,,"monday - friday : 00:00-24:00, saturday : 00:00-24:00, sunday : 00:00-24:00",35.931083,-89.872175,,,,,
61,Wynne Supercenter,https://www.cymbalstore.com/store/68/wynne-ar/details,800 Highway 64 E,Wynne,AR,72396,US,870-238-8129,,,,,,,"monday - friday : 00:00-24:00, saturday : 00:00-24:00, sunday : 00:00-24:00",35.253427,-90.777454,,,,,
62,Brownsville Supercenter,https://www.cymbalstore.com/store/64/brownsville-tn/details,1100 S Dupree Ave,Brownsville,TN,38012,US,731-772-9551,,,,,,,"monday - friday : 00:00-24:00, saturday : 00:00-24:00, sunday : 00:00-24:00",35.5867,-89.238093,,,,,
63,Clarksville Supercenter,https://www.cymbalstore.com/store/66/clarksville-ar/details,230 Market St.,Clarksville,AR,72830,US,479-754-2046,,,,,,,"monday - friday : 00:00-24:00, saturday : 00:00-24:00, sunday : 00:00-24:00",35.4486832,-93.4604664,,,,,
64,Mena Supercenter,https://www.cymbalstore.com/store/67/mena-ar/details,600 Highway 71 N,Mena,AR,71953,US,479-394-0025,,,,,,,"monday - friday : 00:00-24:00, saturday : 00:00-24:00, sunday : 00:00-24:00",34.588589,-94.225872,,,,,
65,Sullivan Supercenter,https://www.cymbalstore.com/store/65/sullivan-mo/details,350 Park Ridge Rd,Sullivan,MO,63080,US,573-468-7030,,,,,,,"monday - friday : 00:00-24:00, saturday : 00:00-24:00, sunday : 00:00-24:00",38.22075,-91.154792,,,,,
66,Festus Supercenter,https://www.cymbalstore.com/store/69/festus-mo/details,650 S Truman Blvd,Festus,MO,63028,US,636-937-8441,,,,,,,"monday - friday : 00:00-24:00, saturday : 00:00-24:00, sunday : 00:00-24:00",38.211942,-90.387955,,,,,
67,Pittsburg Supercenter,https://www.cymbalstore.com/store/72/pittsburg-ks/details,2710 N Broadway St,Pittsburg,KS,66762,US,620-232-1593,,,,,,,"monday - friday : 00:00-24:00, saturday : 00:00-24:00, sunday : 00:00-24:00",37.433957,-94.702301,,,,,
68,Osceola Supercenter,https://www.cymbalstore.com/store/74/osceola-ar/details,2720 W Keiser Ave,Osceola,AR,72370,US,870-563-3251,,,,,,,"monday - friday : 06:00-24:00, saturday : 06:00-24:00, sunday : 06:00-24:00",35.6999918,-90.0126791,,,,,
69,West Memphis Supercenter,https://www.cymbalstore.com/store/70/west-memphis-ar/details,798 W Service Rd,West Memphis,AR,72301,US,870-732-0175,,,,,,,"monday - friday : 00:00-24:00, saturday : 00:00-24:00, sunday : 00:00-24:00",35.165456,-90.20001,,,,,
70,Sapulpa Supercenter,https://www.cymbalstore.com/store/73/sapulpa-ok/details,1002 W Taft St,Sapulpa,OK,74066,US,918-224-8080,,,,,,,"monday - friday : 00:00-24:00, saturday : 00:00-24:00, sunday : 00:00-24:00",35.986324,-96.135074,,,,,
71,Pocahontas Supercenter,https://www.cymbalstore.com/store/71/pocahontas-ar/details,1415 Highway 67 S,Pocahontas,AR,72455,US,870-892-7703,,,,,,,"monday - friday : 00:00-24:00, saturday : 00:00-24:00, sunday : 00:00-24:00",36.248722,-90.963337,,,,,
72,Wagoner Supercenter,https://www.cymbalstore.com/store/63/wagoner-ok/details,410 S Dewey Ave,Wagoner,OK,74467,US,918-485-9515,,,,,,,"monday - friday : 00:00-24:00, saturday : 00:00-24:00, sunday : 00:00-24:00",35.95667,-95.397539,,,,,
73,Pineville Supercenter,https://www.cymbalstore.com/store/75/pineville-la/details,3636 Monroe Hwy,Pineville,LA,71360,US,318-640-6900,,,,,,,"monday - friday : 00:00-24:00, saturday : 00:00-24:00, sunday : 00:00-24:00",31.367011,-92.406583,,,,,
74,Taylor Supercenter,https://www.cymbalstore.com/store/77/taylor-tx/details,3701 N Main St,Taylor,TX,76574,US,512-352-5505,,,,,,,"monday - friday : 00:00-24:00, saturday : 00:00-24:00, sunday : 00:00-24:00",30.598559,-97.418418,,,,,
75,Marshfield Supercenter,https://www.cymbalstore.com/store/78/marshfield-mo/details,14740 State Hwy #38,Marshfield,MO,65706,US,417-468-6116,,,,,,,"monday - friday : 00:00-24:00, saturday : 00:00-24:00, sunday : 00:00-24:00",37.337928,-92.939632,,,,,
76,Columbia Supercenter,https://www.cymbalstore.com/store/80/columbia-mo/details,3001 W Broadway,Columbia,MO,65203,US,573-445-9506,,,,,,,"monday - friday : 00:00-24:00, saturday : 00:00-24:00, sunday : 00:00-24:00",38.957069,-92.382341,,,,,
77,Joplin Supercenter,https://www.cymbalstore.com/store/79/joplin-mo/details,2623 W 7th St,Joplin,MO,64801,US,417-206-4644,,,,,,,"monday - friday : 00:00-24:00, saturday : 00:00-24:00, sunday : 00:00-24:00",37.087131,-94.545908,,,,,
78,Berryville Supercenter,https://www.cymbalstore.com/store/76/berryville-ar/details,1000 W Trimble Ave,Berryville,AR,72616,US,870-423-4636,,,,,,,"monday - friday : 00:00-24:00, saturday : 00:00-24:00, sunday : 00:00-24:00",36.376273,-93.5870153,,,,,
79,Perryville Supercenter,https://www.cymbalstore.com/store/82/perryville-mo/details,1750 S Perryville Blvd,Perryville,MO,63775,US,573-547-2577,,,,,,,"monday - friday : 00:00-24:00, saturday : 00:00-24:00, sunday : 00:00-24:00",37.705668,-89.896103,,,,,
80,Magnolia Supercenter,https://www.cymbalstore.com/store/83/magnolia-ar/details,60 Highway 79 N,Magnolia,AR,71753,US,870-234-7800,,,,,,,"monday - friday : 00:00-24:00, saturday : 00:00-24:00, sunday : 00:00-24:00",33.276653,-93.212017,,,,,
81,Stilwell Supercenter,https://www.cymbalstore.com/store/81/stilwell-ok/details,Rr 6 Box 1895,Stilwell,OK,74960,US,918-696-3141,,,,,,,"monday - friday : 00:00-24:00, saturday : 00:00-24:00, sunday : 00:00-24:00",35.798588,-94.623206,,,,,
82,Benton Supercenter,https://www.cymbalstore.com/store/85/benton-ar/details,17309 Interstate 30 S,Benton,AR,72015,US,501-860-6135,,,,,,,"monday - friday : 00:00-24:00, saturday : 00:00-24:00, sunday : 00:00-24:00",34.577533,-92.580065,,,,,
83,Springfield Supercenter,https://www.cymbalstore.com/store/86/springfield-mo/details,2825 N Kansas Expy,Springfield,MO,65803,US,417-865-8865,,,,,,,"monday - friday : 00:00-24:00, saturday : 00:00-24:00, sunday : 00:00-24:00",37.248775,-93.313985,,,,,
84,Minden Supercenter,https://www.cymbalstore.com/store/87/minden-la/details,1379 Homer Rd,Minden,LA,71055,US,318-371-9290,,,,,,,"monday - friday : 00:00-24:00, saturday : 00:00-24:00, sunday : 00:00-24:00",32.6280728,-93.2511369,,,,,
85,Mountain Grove Supercenter,https://www.cymbalstore.com/store/88/mountain-grove-mo/details,2100 N Main Ave,Mountain Grove,MO,65711,US,417-926-5107,,,,,,,"monday - friday : 00:00-24:00, saturday : 00:00-24:00, sunday : 00:00-24:00",37.150021,-92.259461,,,,,
86,Aurora Supercenter,https://www.cymbalstore.com/store/92/aurora-mo/details,3020 S Elliott Ave,Aurora,MO,65605,US,417-678-1258,,,,,,,"monday - friday : 00:00-24:00, saturday : 00:00-24:00, sunday : 00:00-24:00",36.946462,-93.714993,,,,,
87,Camdenton Supercenter,https://www.cymbalstore.com/store/89/camdenton-mo/details,94 Cecil St,Camdenton,MO,65020,US,573-346-3588,,,,,,,"monday - friday : 00:00-24:00, saturday : 00:00-24:00, sunday : 00:00-24:00",38.025748,-92.722992,,,,,
88,Grove Supercenter,https://www.cymbalstore.com/store/90/grove-ok/details,2115 S Main St,Grove,OK,74344,US,918-786-8561,,,,,,,"monday - friday : 00:00-24:00, saturday : 00:00-24:00, sunday : 00:00-24:00",36.5764748,-94.7656055,,,,,
89,Covington Supercenter,https://www.cymbalstore.com/store/93/covington-tn/details,201 Lanny Bridges Ave,Covington,TN,38019,US,901-476-4492,,,,,,,"monday - friday : 00:00-24:00, saturday : 00:00-24:00, sunday : 00:00-24:00",35.545844,-89.665294,,,,,
90,Forrest City Supercenter,https://www.cymbalstore.com/store/91/forrest-city-ar/details,205 Deadrick Rd,Forrest City,AR,72335,US,870-633-0021,,,,,,,"monday - friday : 00:00-24:00, saturday : 00:00-24:00, sunday : 00:00-24:00",35.028039,-90.793582,,,,,
91,Harrisonville Supercenter,https://www.cymbalstore.com/store/96/harrisonville-mo/details,1700 N State Route 291,Harrisonville,MO,64701,US,816-884-5635,,,,,,,"monday - friday : 00:00-24:00, saturday : 00:00-24:00, sunday : 00:00-24:00",38.666161,-94.369474,,,,,
92,Millington Supercenter,https://www.cymbalstore.com/store/94/millington-tn/details,8445 Us Highway 51 N,Millington,TN,38053,US,901-872-6100,,,,,,,"monday - friday : 00:00-24:00, saturday : 00:00-24:00, sunday : 00:00-24:00",35.357703,-89.897647,,,,,
93,Desloge Supercenter,https://www.cymbalstore.com/store/95/desloge-mo/details,407 No. State St,Desloge,MO,63601,US,573-431-5094,,,,,,,"monday - friday : 00:00-24:00, saturday : 00:00-24:00, sunday : 00:00-24:00",37.883896,-90.513307,,,,,
94,Ripley Supercenter,https://www.cymbalstore.com/store/97/ripley-tn/details,628 Highway 51 N,Ripley,TN,38063,US,731-635-8904,,,,,,,"monday - friday : 00:00-24:00, saturday : 00:00-24:00, sunday : 00:00-24:00",35.760785,-89.543058,,,,,
95,Bastrop Supercenter,https://www.cymbalstore.com/store/98/bastrop-la/details,6091 Mer Rouge Rd,Bastrop,LA,71220,US,318-281-9384,,,,,,,"monday - friday : 00:00-24:00, saturday : 00:00-24:00, sunday : 00:00-24:00",32.775799,-91.870221,,,,,
96,Union Supercenter,https://www.cymbalstore.com/store/99/union-mo/details,1445 E Central Ct,Union,MO,63084,US,636-583-2355,,,,,,,"monday - friday : 00:00-24:00, saturday : 00:00-24:00, sunday : 00:00-24:00",38.4344195,-90.9700946,,,,,
97,Bentonville Supercenter,https://www.cymbalstore.com/store/100/bentonville-ar/details,406 S Walton Blvd,Bentonville,AR,72712,US,479-273-0060,,,,,,,"monday - friday : 00:00-24:00, saturday : 00:00-24:00, sunday : 00:00-24:00",36.368151,-94.224959,,,,,
98,Rolla Supercenter,https://www.cymbalstore.com/store/101/rolla-mo/details,500 S Bishop Ave,Rolla,MO,65401,US,573-341-9145,,,,,,,"monday - friday : 00:00-24:00, saturday : 00:00-24:00, sunday : 00:00-24:00",37.937606,-91.779138,,,,,
99,Stuttgart Supercenter,https://www.cymbalstore.com/store/102/stuttgart-ar/details,406 E 22nd St,Stuttgart,AR,72160,US,870-673-3349,,,,,,,"monday - friday : 00:00-24:00, saturday : 00:00-24:00, sunday : 00:00-24:00",34.477048,-91.549074,,,,,
100,Shawnee Supercenter,https://www.cymbalstore.com/store/103/shawnee-ok/details,196 Shawnee Mall Dr,Shawnee,OK,74804,US,405-275-1030,,,,,,,"monday - friday : 00:00-24:00, saturday : 00:00-24:00, sunday : 00:00-24:00",35.386877,-96.921788,,,,,
101,Corinth Supercenter,https://www.cymbalstore.com/store/105/corinth-ms/details,2301 S Harper Rd,Corinth,MS,38834,US,662-287-3148,,,,,,,"monday - friday : 00:00-24:00, saturday : 00:00-24:00, sunday : 00:00-24:00",34.910046,-88.502016,,,,,
102,Milan Supercenter,https://www.cymbalstore.com/store/104/milan-tn/details,15427 S First St,Milan,TN,38358,US,731-686-9557,,,,,,,"monday - friday : 00:00-24:00, saturday : 00:00-24:00, sunday : 00:00-24:00",35.876197,-88.748089,,,,,
103,Fulton Supercenter,https://www.cymbalstore.com/store/106/fulton-ky/details,1405 Middle Rd,Fulton,KY,42041,US,270-472-1426,,,,,,,"monday - friday : 00:00-24:00, saturday : 00:00-24:00, sunday : 00:00-24:00",36.51749,-88.900147,,,,,
104,Guthrie Supercenter,https://www.cymbalstore.com/store/108/guthrie-ok/details,1608 S Division St,Guthrie,OK,73044,US,405-282-7900,,,,,,,"monday - friday : 00:00-24:00, saturday : 00:00-24:00, sunday : 00:00-24:00",35.862878,-97.42269,,,,,
105,Cameron Supercenter,https://www.cymbalstore.com/store/109/cameron-mo/details,2000 N Walnut St,Cameron,MO,64429,US,816-632-9900,,,,,,,"monday - friday : 00:00-24:00, saturday : 00:00-24:00, sunday : 00:00-24:00",39.758116,-94.231503,,,,,
106,Winter Garden Supercenter,https://www.cymbalstore.com/store/110/winter-garden-fl/details,16313 New Independence Parkway,Winter Garden,FL,34787,US,407-554-0182,,,,,,,"monday - friday : 00:00-24:00, saturday : 00:00-24:00, sunday : 00:00-24:00",28.476488,-81.629452,,,,,
107,Chanute Supercenter,https://www.cymbalstore.com/store/111/chanute-ks/details,2700 S Santa Fe Ave,Chanute,KS,66720,US,620-431-3077,,,,,,,"monday - friday : 00:00-24:00, saturday : 00:00-24:00, sunday : 00:00-24:00",37.65365,-95.450998,,,,,
108,Chickasha Supercenter,https://www.cymbalstore.com/store/113/chickasha-ok/details,2001 S 1st St,Chickasha,OK,73018,US,405-224-1867,,,,,,,"monday - friday : 00:00-24:00, saturday : 00:00-24:00, sunday : 00:00-24:00",35.031027,-97.931081,,,,,
109,Starkville Supercenter,https://www.cymbalstore.com/store/112/starkville-ms/details,1010 Highway 12 W,Starkville,MS,39759,US,662-324-0374,,,,,,,"monday - friday : 00:00-24:00, saturday : 00:00-24:00, sunday : 00:00-24:00",33.444519,-88.851436,,,,,
110,Booneville Supercenter,https://www.cymbalstore.com/store/114/booneville-ms/details,300 Walmart Cir,Booneville,MS,38829,US,662-728-6211,,,,,,,"monday - friday : 05:00-24:00, saturday : 05:00-24:00, sunday : 05:00-24:00",34.677408,-88.56422,,,,,
111,West Point Supercenter,https://www.cymbalstore.com/store/115/west-point-ms/details,5509 Highway 45 Alt S,West Point,MS,39773,US,662-494-1551,,,,,,,"monday - friday : 06:00-23:00, saturday : 06:00-23:00, sunday : 06:00-23:00",33.586655,-88.661913,,,,,
112,Amory Supercenter,https://www.cymbalstore.com/store/118/amory-ms/details,1515 Highway 278 E,Amory,MS,38821,US,662-256-1590,,,,,,,"monday - friday : 00:00-24:00, saturday : 00:00-24:00, sunday : 00:00-24:00",33.968526,-88.457017,,,,,
113,Vivian Store,https://www.cymbalstore.com/store/116/vivian-la/details,929 S Pine St,Vivian,LA,71082,US,318-375-4810,,,,,,,"monday - friday : 07:00-21:00, saturday : 07:00-21:00, sunday : 07:00-21:00",32.857781,-93.986591,,,,,
114,Okmulgee Supercenter,https://www.cymbalstore.com/store/121/okmulgee-ok/details,1800 S Wood Dr,Okmulgee,OK,74447,US,918-756-6790,,,,,,,"monday - friday : 00:00-24:00, saturday : 00:00-24:00, sunday : 00:00-24:00",35.605657,-95.964357,,,,,
115,Batesville Supercenter,https://www.cymbalstore.com/store/119/batesville-ar/details,3150 Harrison St,Batesville,AR,72501,US,870-793-9004,,,,,,,"monday - friday : 00:00-24:00, saturday : 00:00-24:00, sunday : 00:00-24:00",35.762696,-91.614278,,,,,
116,Broken Bow Store,https://www.cymbalstore.com/store/117/broken-bow-ok/details,501 S Park Dr,Broken Bow,OK,74728,US,580-584-3324,,,,,,,"monday - friday : 00:00-24:00, saturday : 00:00-24:00, sunday : 00:00-24:00",34.0223133,-94.7379574,,,,,
117,Martin Supercenter,https://www.cymbalstore.com/store/107/martin-tn/details,134 Courtright Rd,Martin,TN,38237,US,731-587-3843,,,,,,,"monday - friday : 00:00-24:00, saturday : 00:00-24:00, sunday : 00:00-24:00",36.355005,-88.883642,,,,,
118,Jackson Supercenter,https://www.cymbalstore.com/store/122/jackson-mo/details,3051 E Jackson Blvd,Jackson,MO,63755,US,573-243-3909,,,,,,,"monday - friday : 00:00-24:00, saturday : 00:00-24:00, sunday : 00:00-24:00",37.362068,-89.634627,,,,,
119,Humboldt Supercenter,https://www.cymbalstore.com/store/120/humboldt-tn/details,2716 N Central Ave,Humboldt,TN,38343,US,731-784-0025,,,,,,,"monday - friday : 00:00-24:00, saturday : 00:00-24:00, sunday : 00:00-24:00",35.840815,-88.911782,,,,,
120,Little Rock Supercenter,https://www.cymbalstore.com/store/124/little-rock-ar/details,8801 Baseline Rd,Little Rock,AR,72209,US,501-565-0274,,,,,,,"monday - friday : 06:00-24:00, saturday : 06:00-24:00, sunday : 06:00-24:00",34.667147,-92.377089,,,,,
121,Malvern Supercenter,https://www.cymbalstore.com/store/127/malvern-ar/details,1910 Martin Luther King Blvd,Malvern,AR,72104,US,501-337-9485,,,,,,,"monday - friday : 06:00-01:00, saturday : 06:00-01:00, sunday : 06:00-01:00",34.3907358,-92.8327356,,,,,
122,Jonesboro Supercenter,https://www.cymbalstore.com/store/128/jonesboro-ar/details,1911 W Parker Rd,Jonesboro,AR,72404,US,870-972-6350,,,,,,,"monday - friday : 00:00-24:00, saturday : 00:00-24:00, sunday : 00:00-24:00",35.815748,-90.734426,,,,,
123,Fort Smith Supercenter,https://www.cymbalstore.com/store/125/fort-smith-ar/details,2425 S Zero St,Fort Smith,AR,72901,US,479-646-6382,,,,,,,"monday - friday : 00:00-24:00, saturday : 00:00-24:00, sunday : 00:00-24:00",35.329141,-94.406562,,,,,
124,Little Rock Supercenter,https://www.cymbalstore.com/store/126/little-rock-ar/details,2700 S Shackleford Rd,Little Rock,AR,72205,US,501-223-0604,,,,,,,"monday - friday : 00:00-24:00, saturday : 00:00-24:00, sunday : 00:00-24:00",34.72831,-92.397677,,,,,
125,Muskogee Supercenter,https://www.cymbalstore.com/store/130/muskogee-ok/details,1000 W Shawnee St,Muskogee,OK,74401,US,918-687-0058,,,,,,,"monday - friday : 00:00-24:00, saturday : 00:00-24:00, sunday : 00:00-24:00",35.772625,-95.373093,,,,,
126,Ardmore Supercenter,https://www.cymbalstore.com/store/129/ardmore-ok/details,1715 N Commerce St,Ardmore,OK,73401,US,580-226-1257,,,,,,,"monday - friday : 00:00-24:00, saturday : 00:00-24:00, sunday : 00:00-24:00",34.193239,-97.145321,,,,,
127,Seminole Supercenter,https://www.cymbalstore.com/store/123/seminole-ok/details,1500 E Wrangler Blvd,Seminole,OK,74868,US,405-382-5290,,,,,,,"monday - friday : 00:00-24:00, saturday : 00:00-24:00, sunday : 00:00-24:00",35.248317,-96.654501,,,,,
128,Kingfisher Supercenter,https://www.cymbalstore.com/store/132/kingfisher-ok/details,200 Starlite Dr,Kingfisher,OK,73750,US,405-375-5743,,,,,,,"monday - friday : 00:00-24:00, saturday : 00:00-24:00, sunday : 00:00-24:00",35.8287229,-97.9367127,,,,,
129,Mount Pleasant Supercenter,https://www.cymbalstore.com/store/131/mount-pleasant-tx/details,2311 S Jefferson Ave,Mount Pleasant,TX,75455,US,903-572-0018,,,,,,,"monday - friday : 00:00-24:00, saturday : 00:00-24:00, sunday : 00:00-24:00",33.134578,-94.964667,,,,,
130,Ashdown Supercenter,https://www.cymbalstore.com/store/133/ashdown-ar/details,297 Hwy 32 By-pass E,Ashdown,AR,71822,US,870-898-5126,,,,,,,"monday - friday : 00:00-24:00, saturday : 00:00-24:00, sunday : 00:00-24:00",33.657167,-94.10924,,,,,
131,Elk City Supercenter,https://www.cymbalstore.com/store/134/elk-city-ok/details,210 Regional Dr,Elk City,OK,73644,US,580-225-3003,,,,,,,"monday - friday : 00:00-24:00, saturday : 00:00-24:00, sunday : 00:00-24:00",35.409307,-99.37645,,,,,
132,Blackwell Store,https://www.cymbalstore.com/store/136/blackwell-ok/details,1219 W Doolin Ave,Blackwell,OK,74631,US,580-363-4111,,,,,,,"monday - friday : 07:00-22:00, saturday : 07:00-22:00, sunday : 07:00-22:00",36.810171,-97.297401,,,,,
133,Chillicothe Supercenter,https://www.cymbalstore.com/store/135/chillicothe-mo/details,1000 Graves St,Chillicothe,MO,64601,US,660-646-6000,,,,,,,"monday - friday : 00:00-24:00, saturday : 00:00-24:00, sunday : 00:00-24:00",39.7765306,-93.55634,,,,,
134,Springfield Supercenter,https://www.cymbalstore.com/store/138/springfield-mo/details,1923 E Kearney St,Springfield,MO,65803,US,417-865-4545,,,,,,,"monday - friday : 06:00-24:00, saturday : 06:00-24:00, sunday : 06:00-24:00",37.241729,-93.258694,,,,,
135,Stillwater Supercenter,https://www.cymbalstore.com/store/137/stillwater-ok/details,111 N Perkins Rd,Stillwater,OK,74075,US,405-372-2897,,,,,,,"monday - friday : 00:00-24:00, saturday : 00:00-24:00, sunday : 00:00-24:00",36.124523,-97.048223,,,,,
136,Purcell Supercenter,https://www.cymbalstore.com/store/139/purcell-ok/details,2015 S Green Ave,Purcell,OK,73080,US,405-527-5621,,,,,,,"monday - friday : 00:00-24:00, saturday : 00:00-24:00, sunday : 00:00-24:00",34.987486,-97.370172,,,,,
137,Fort Smith Supercenter,https://www.cymbalstore.com/store/141/fort-smith-ar/details,8301 Rogers Ave,Fort Smith,AR,72903,US,479-484-5205,,,,,,,"monday - friday : 00:00-24:00, saturday : 00:00-24:00, sunday : 00:00-24:00",35.350111,-94.338702,,,,,
138,Fayetteville Supercenter,https://www.cymbalstore.com/store/144/fayetteville-ar/details,2875 W Mrtn Luther K,Fayetteville,AR,72704,US,479-582-0428,,,,,,,"monday - friday : 00:00-24:00, saturday : 00:00-24:00, sunday : 00:00-24:00",36.050008,-94.201133,,,,,
139,Lufkin Supercenter,https://www.cymbalstore.com/store/140/lufkin-tx/details,2500 Daniel Mccall Dr,Lufkin,TX,75904,US,936-639-9600,,,,,,,"monday - friday : 00:00-24:00, saturday : 00:00-24:00, sunday : 00:00-24:00",31.299557,-94.731474,,,,,
140,Gilmer Supercenter,https://www.cymbalstore.com/store/146/gilmer-tx/details,1102 Us Highway 271 North,Gilmer,TX,75644,US,903-797-6501,,,,,,,"monday - friday : 00:00-24:00, saturday : 00:00-24:00, sunday : 00:00-24:00",32.747175,-94.93762,,,,,
141,Benton Supercenter,https://www.cymbalstore.com/store/143/benton-ky/details,310 W 5th St,Benton,KY,42025,US,270-527-1605,,,,,,,"monday - friday : 00:00-24:00, saturday : 00:00-24:00, sunday : 00:00-24:00",36.869615,-88.360427,,,,,
142,Paris Supercenter,https://www.cymbalstore.com/store/148/paris-tx/details,3855 Lamar Ave,Paris,TX,75462,US,903-785-7168,,,,,,,"monday - friday : 00:00-24:00, saturday : 00:00-24:00, sunday : 00:00-24:00",33.664699,-95.505897,,,,,
143,Woodward Supercenter,https://www.cymbalstore.com/store/150/woodward-ok/details,3215 Williams Ave,Woodward,OK,73801,US,580-254-3331,,,,,,,"monday - friday : 00:00-24:00, saturday : 00:00-24:00, sunday : 00:00-24:00",36.412341,-99.384178,,,,,
144,Bowling Green Supercenter,https://www.cymbalstore.com/store/145/bowling-green-mo/details,3 Town Center Dr,Bowling Green,MO,63334,US,573-324-0040,,,,,,,"monday - friday : 00:00-24:00, saturday : 00:00-24:00, sunday : 00:00-24:00",39.330546,-91.181652,,,,,
145,Jonesboro Supercenter,https://www.cymbalstore.com/store/149/jonesboro-la/details,184 Old Winnfield Rd,Jonesboro,LA,71251,US,318-259-4149,,,,,,,"monday - friday : 06:00-24:00, saturday : 06:00-24:00, sunday : 06:00-24:00",32.227952,-92.705761,,,,,
146,Denison Supercenter,https://www.cymbalstore.com/store/147/denison-tx/details,401 N Us Highway 75,Denison,TX,75020,US,903-465-9744,,,,,,,"monday - friday : 00:00-24:00, saturday : 00:00-24:00, sunday : 00:00-24:00",33.759174,-96.587537,,,,,
147,Mcalester Supercenter,https://www.cymbalstore.com/store/151/mcalester-ok/details,432 S George Nigh Expy,Mcalester,OK,74501,US,918-423-8585,,,,,,,"monday - friday : 00:00-24:00, saturday : 00:00-24:00, sunday : 00:00-24:00",34.9192022,-95.7404781,,,,,
148,De Soto Supercenter,https://www.cymbalstore.com/store/152/de-soto-mo/details,12862 State Route 21,De Soto,MO,63020,US,636-586-6878,,,,,,,"monday - friday : 00:00-24:00, saturday : 00:00-24:00, sunday : 00:00-24:00",38.150177,-90.574504,,,,,
149,New Albany Supercenter,https://www.cymbalstore.com/store/153/new-albany-ms/details,202 Park Plaza Dr,New Albany,MS,38652,US,662-534-9374,,,,,,,"monday - friday : 00:00-24:00, saturday : 00:00-24:00, sunday : 00:00-24:00",34.492946,-89.032578,,,,,
150,Searcy Supercenter,https://www.cymbalstore.com/store/157/searcy-ar/details,3509 E Race Ave,Searcy,AR,72143,US,501-268-2207,,,,,,,"monday - friday : 00:00-24:00, saturday : 00:00-24:00, sunday : 00:00-24:00",35.247101,-91.687166,,,,,
151,Abingdon Supercenter,https://www.cymbalstore.com/store/154/abingdon-va/details,16032 Fifteen Mile Boulevard,Abingdon,VA,24211,US,276-619-4843,,,,,,,"monday - friday : 00:00-24:00, saturday : 00:00-24:00, sunday : 00:00-24:00",36.714643,-81.927722,,,,,
152,Columbia Supercenter,https://www.cymbalstore.com/store/159/columbia-mo/details,415 Conley Rd,Columbia,MO,65201,US,573-499-4935,,,,,,,"monday - friday : 06:00-24:00, saturday : 06:00-24:00, sunday : 06:00-24:00",38.954911,-92.296729,,,,,
153,Anadarko Supercenter,https://www.cymbalstore.com/store/162/anadarko-ok/details,1201 W Petree Rd,Anadarko,OK,73005,US,405-247-2535,,,,,,,"monday - friday : 07:00-23:00, saturday : 07:00-23:00, sunday : 07:00-23:00",35.060053,-98.262377,,,,,
154,Bonham Supercenter,https://www.cymbalstore.com/store/158/bonham-tx/details,2021 N State Highway 121,Bonham,TX,75418,US,903-583-9591,,,,,,,"monday - friday : 00:00-24:00, saturday : 00:00-24:00, sunday : 00:00-24:00",33.596586,-96.194575,,,,,
155,Ash Flat Supercenter,https://www.cymbalstore.com/store/160/ash-flat-ar/details,219 Highway 412,Ash Flat,AR,72513,US,870-994-7520,,,,,,,"monday - friday : 00:00-24:00, saturday : 00:00-24:00, sunday : 00:00-24:00",36.241189,-91.596294,,,,,
156,Senatobia Supercenter,https://www.cymbalstore.com/store/155/senatobia-ms/details,5219 Highway 51 N,Senatobia,MS,38668,US,662-562-6202,,,,,,,"monday - friday : 00:00-24:00, saturday : 00:00-24:00, sunday : 00:00-24:00",34.629368,-89.971894,,,,,
157,Huntingdon Supercenter,https://www.cymbalstore.com/store/161/huntingdon-tn/details,180 Veterans Dr N,Huntingdon,TN,38344,US,731-986-4439,,,,,,,"monday - friday : 00:00-24:00, saturday : 00:00-24:00, sunday : 00:00-24:00",35.997828,-88.43735,,,,,
158,Nacogdoches Supercenter,https://www.cymbalstore.com/store/163/nacogdoches-tx/details,4810 North St,Nacogdoches,TX,75965,US,936-560-6969,,,,,,,"monday - friday : 00:00-24:00, saturday : 00:00-24:00, sunday : 00:00-24:00",31.650027,-94.652353,,,,,
159,Pontotoc Supercenter,https://www.cymbalstore.com/store/164/pontotoc-ms/details,100 Mccord Rd,Pontotoc,MS,38863,US,662-489-7451,,,,,,,"monday - friday : 00:00-24:00, saturday : 00:00-24:00, sunday : 00:00-24:00",34.285602,-89.021349,,,,,
160,Henderson Supercenter,https://www.cymbalstore.com/store/165/henderson-tx/details,2121 Us Highway 79 S,Henderson,TX,75654,US,903-657-5707,,,,,,,"monday - friday : 00:00-24:00, saturday : 00:00-24:00, sunday : 00:00-24:00",32.130652,-94.802126,,,,,
161,Houston Supercenter,https://www.cymbalstore.com/store/166/houston-mo/details,1433 S Sam Houston Blvd,Houston,MO,65483,US,417-967-3302,,,,,,,"monday - friday : 06:00-01:00, saturday : 06:00-01:00, sunday : 06:00-01:00",37.313756,-91.962661,,,,,
162,Owasso Supercenter,https://www.cymbalstore.com/store/168/owasso-ok/details,12101 E 96th St N,Owasso,OK,74055,US,918-272-6609,,,,,,,"monday - friday : 00:00-24:00, saturday : 00:00-24:00, sunday : 00:00-24:00",36.295227,-95.837899,,,,,
163,Natchitoches Supercenter,https://www.cymbalstore.com/store/170/natchitoches-la/details,925 Keyser Ave,Natchitoches,LA,71457,US,318-352-5607,,,,,,,"monday - friday : 00:00-24:00, saturday : 00:00-24:00, sunday : 00:00-24:00",31.750245,-93.066686,,,,,
164,Crossett Supercenter,https://www.cymbalstore.com/store/167/crossett-ar/details,910 Unity Rd,Crossett,AR,71635,US,870-364-2165,,,,,,,"monday - friday : 00:00-24:00, saturday : 00:00-24:00, sunday : 00:00-24:00",33.136229,-91.941957,,,,,
165,Lonoke Supercenter,https://www.cymbalstore.com/store/169/lonoke-ar/details,322 Brownsville Loop,Lonoke,AR,72086,US,501-676-3191,,,,,,,"monday - friday : 06:00-24:00, saturday : 06:00-24:00, sunday : 06:00-24:00",34.805224,-91.894037,,,,,
166,Camden Supercenter,https://www.cymbalstore.com/store/171/camden-ar/details,950 California Ave Sw,Camden,AR,71701,US,870-836-8000,,,,,,,"monday - friday : 00:00-24:00, saturday : 00:00-24:00, sunday : 00:00-24:00",33.567239,-92.836856,,,,,
167,Potosi Supercenter,https://www.cymbalstore.com/store/173/potosi-mo/details,#1 Memorial Drive,Potosi,MO,63664,US,573-438-5441,,,,,,,"monday - friday : 06:00-24:00, saturday : 06:00-24:00, sunday : 06:00-24:00",37.92381,-90.771606,,,,,
168,Washington Supercenter,https://www.cymbalstore.com/store/172/washington-mo/details,1701 A Roy Dr,Washington,MO,63090,US,636-239-1993,,,,,,,"monday - friday : 00:00-24:00, saturday : 00:00-24:00, sunday : 00:00-24:00",38.5404591,-90.9952384,,,,,
169,Collierville Supercenter,https://www.cymbalstore.com/store/175/collierville-tn/details,560 W Poplar Ave,Collierville,TN,38017,US,901-854-5100,,,,,,,"monday - friday : 00:00-24:00, saturday : 00:00-24:00, sunday : 00:00-24:00",35.048344,-89.68099,,,,,
170,Cocoa Supercenter,https://www.cymbalstore.com/store/174/cocoa-fl/details,2700 Clearlake Rd,Cocoa,FL,32922,US,321-639-1610,,,,,,,"monday - friday : 00:00-24:00, saturday : 00:00-24:00, sunday : 00:00-24:00",28.395378,-80.753116,,,,,
171,Ripley Store,https://www.cymbalstore.com/store/176/ripley-ms/details,822 City Ave S,Ripley,MS,38663,US,662-837-0014,,,,,,,"monday - friday : 06:00-22:00, saturday : 06:00-22:00, sunday : 06:00-22:00",34.72373,-88.950897,,,,,
172,Paris Supercenter,https://www.cymbalstore.com/store/177/paris-tn/details,1210 Mineral Wells Ave,Paris,TN,38242,US,731-644-0290,,,,,,,"monday - friday : 00:00-24:00, saturday : 00:00-24:00, sunday : 00:00-24:00",36.281103,-88.307919,,,,,
173,Alva Supercenter,https://www.cymbalstore.com/store/178/alva-ok/details,914 E Oklahoma Blvd,Alva,OK,73717,US,580-327-4021,,,,,,,"monday - friday : 00:00-24:00, saturday : 00:00-24:00, sunday : 00:00-24:00",36.79952,-98.645026,,,,,
174,Springfield Supercenter,https://www.cymbalstore.com/store/179/springfield-mo/details,3520 W Sunshine St,Springfield,MO,65807,US,417-862-7447,,,,,,,"monday - friday : 00:00-23:59, saturday : 00:00-23:59, sunday : 00:00-23:59",37.180349,-93.352393,,,,,
175,Greenville Supercenter,https://www.cymbalstore.com/store/182/greenville-ms/details,1831 Highway 1 S,Greenville,MS,38701,US,662-332-9026,,,,,,,"monday - friday : 00:00-24:00, saturday : 00:00-24:00, sunday : 00:00-24:00",33.3678514,-91.0438728,,,,,
176,New Boston Supercenter,https://www.cymbalstore.com/store/181/new-boston-tx/details,800 James Bowie Dr,New Boston,TX,75570,US,903-628-5557,,,,,,,"monday - friday : 00:00-24:00, saturday : 00:00-24:00, sunday : 00:00-24:00",33.470693,-94.403621,,,,,
177,Gainesville Supercenter,https://www.cymbalstore.com/store/185/gainesville-tx/details,1800 Lawrence St,Gainesville,TX,76240,US,940-668-6898,,,,,,,"monday - friday : 00:00-24:00, saturday : 00:00-24:00, sunday : 00:00-24:00",33.645646,-97.13596,,,,,
178,Blue Springs Supercenter,https://www.cymbalstore.com/store/184/blue-springs-mo/details,600 Ne Coronado Dr,Blue Springs,MO,64014,US,816-224-4800,,,,,,,"monday - friday : 00:00-24:00, saturday : 00:00-24:00, sunday : 00:00-24:00",39.024151,-94.25503,,,,,
179,Jacksonville Supercenter,https://www.cymbalstore.com/store/180/jacksonville-tx/details,1311 S Jackson St,Jacksonville,TX,75766,US,903-589-3434,,,,,,,"monday - friday : 00:00-24:00, saturday : 00:00-24:00, sunday : 00:00-24:00",31.951409,-95.266334,,,,,
180,Louisville Supercenter,https://www.cymbalstore.com/store/183/louisville-ms/details,159 Highway 15 S,Louisville,MS,39339,US,662-773-7823,,,,,,,"monday - friday : 06:00-23:00, saturday : 06:00-23:00, sunday : 06:00-23:00",33.122255,-89.08271,,,,,
181,El Dorado Supercenter,https://www.cymbalstore.com/store/186/el-dorado-ks/details,301 S Village Rd,El Dorado,KS,67042,US,316-322-8100,,,,,,,"monday - friday : 00:00-24:00, saturday : 00:00-24:00, sunday : 00:00-24:00",37.814622,-96.892174,,,,,
182,Cape Girardeau Supercenter,https://www.cymbalstore.com/store/188/cape-girardeau-mo/details,3439 William St,Cape Girardeau,MO,63701,US,573-335-4600,,,,,,,"monday - friday : 00:00-24:00, saturday : 00:00-24:00, sunday : 00:00-24:00",37.30124,-89.585833,,,,,
183,Kirksville Supercenter,https://www.cymbalstore.com/store/189/kirksville-mo/details,2206 N Baltimore St,Kirksville,MO,63501,US,660-627-7100,,,,,,,"monday - friday : 00:00-24:00, saturday : 00:00-24:00, sunday : 00:00-24:00",40.216711,-92.579522,,,,,
184,Baytown Supercenter,https://www.cymbalstore.com/store/194/baytown-tx/details,4900 Garth Rd,Baytown,TX,77521,US,281-421-4859,,,,,,,"monday - friday : 00:00-24:00, saturday : 00:00-24:00, sunday : 00:00-24:00",29.7763429,-94.9743933,,,,,
185,Excelsior Springs Supercenter,https://www.cymbalstore.com/store/195/excelsior-springs-mo/details,2203 Patsy Ln,Excelsior Springs,MO,64024,US,816-630-1003,,,,,,,"monday - friday : 06:00-01:00, saturday : 06:00-01:00, sunday : 06:00-01:00",39.329466,-94.265105,,,,,
186,Columbia Supercenter,https://www.cymbalstore.com/store/192/columbia-tn/details,2200 Brookmeade Dr,Columbia,TN,38401,US,931-381-6892,,,,,,,"monday - friday : 00:00-24:00, saturday : 00:00-24:00, sunday : 00:00-24:00",35.5989735,-87.0513091,,,,,
187,Carbondale Supercenter,https://www.cymbalstore.com/store/196/carbondale-il/details,1450 E Main St,Carbondale,IL,62901,US,618-457-2033,,,,,,,"monday - friday : 00:00-24:00, saturday : 00:00-24:00, sunday : 00:00-24:00",37.738565,-89.186886,,,,,
188,Kennett Supercenter,https://www.cymbalstore.com/store/190/kennett-mo/details,1500 1st St,Kennett,MO,63857,US,573-888-2084,,,,,,,"monday - friday : 00:00-24:00, saturday : 00:00-24:00, sunday : 00:00-24:00",36.238808,-90.037563,,,,,
189,Salem Supercenter,https://www.cymbalstore.com/store/198/salem-il/details,1870 W Main St,Salem,IL,62881,US,618-548-4383,,,,,,,"monday - friday : 00:00-24:00, saturday : 00:00-24:00, sunday : 00:00-24:00",38.625999,-88.98129,,,,,
190,Lincoln Supercenter,https://www.cymbalstore.com/store/199/lincoln-il/details,825 Malerich Dr,Lincoln,IL,62656,US,217-735-2314,,,,,,,"monday - friday : 00:00-24:00, saturday : 00:00-24:00, sunday : 00:00-24:00",40.154263,-89.398031,,,,,
191,Macomb Supercenter,https://www.cymbalstore.com/store/197/macomb-il/details,1730 E Jackson St,Macomb,IL,61455,US,309-836-3311,,,,,,,"monday - friday : 00:00-24:00, saturday : 00:00-24:00, sunday : 00:00-24:00",40.461079,-90.641514,,,,,
192,Belleville Supercenter,https://www.cymbalstore.com/store/201/belleville-il/details,2608 Green Mount Commons Dr,Belleville,IL,62221,US,618-236-2200,,,,,,,"monday - friday : 00:00-24:00, saturday : 00:00-24:00, sunday : 00:00-24:00",38.522079,-89.922955,,,,,
193,Princeton Supercenter,https://www.cymbalstore.com/store/204/princeton-ky/details,1500 Us Highway 62 W,Princeton,KY,42445,US,270-365-7692,,,,,,,"monday - friday : 00:00-24:00, saturday : 00:00-24:00, sunday : 00:00-24:00",37.11071,-87.918332,,,,,
194,Jacksonville Supercenter,https://www.cymbalstore.com/store/200/jacksonville-il/details,1941 W Morton Ave,Jacksonville,IL,62650,US,217-245-5146,,,,,,,"monday - friday : 00:00-24:00, saturday : 00:00-24:00, sunday : 00:00-24:00",39.71992,-90.270971,,,,,
195,Mckinney Supercenter,https://www.cymbalstore.com/store/206/mckinney-tx/details,2041 N Redbud Blvd,Mckinney,TX,75069,US,972-542-9585,,,,,,,"monday - friday : 00:00-24:00, saturday : 00:00-24:00, sunday : 00:00-24:00",33.222075,-96.629963,,,,,
196,Brookfield Supercenter,https://www.cymbalstore.com/store/203/brookfield-mo/details,937 Park Circle Dr,Brookfield,MO,64628,US,660-258-7416,,,,,,,"monday - friday : 00:00-24:00, saturday : 00:00-24:00, sunday : 00:00-24:00",39.767807,-93.072718,,,,,
197,Philadelphia Supercenter,https://www.cymbalstore.com/store/205/philadelphia-ms/details,1002 W Beacon St,Philadelphia,MS,39350,US,601-656-4166,,,,,,,"monday - friday : 00:00-24:00, saturday : 00:00-24:00, sunday : 00:00-24:00",32.7675247,-89.1275641,,,,,
198,Cleveland Supercenter,https://www.cymbalstore.com/store/207/cleveland-ok/details,772 N Airport Rd,Cleveland,OK,74020,US,918-358-3553,,,,,,,"monday - friday : 00:00-24:00, saturday : 00:00-24:00, sunday : 00:00-24:00",36.297466,-96.463165,,,,,
199,Ozark Store,https://www.cymbalstore.com/store/209/ozark-ar/details,1516 N 18th St,Ozark,AR,72949,US,479-667-2143,,,,,,,"monday - friday : 06:00-22:00, saturday : 06:00-22:00, sunday : 06:00-22:00",35.503711,-93.84385,,,,,
200,Holdenville Store,https://www.cymbalstore.com/store/210/holdenville-ok/details,500 East Highway 270,Holdenville,OK,74848,US,405-379-6688,,,,,,,"monday - friday : 00:00-24:00, saturday : 00:00-24:00, sunday : 00:00-24:00",35.088093,-96.381422,,,,,
201,Hillsboro Supercenter,https://www.cymbalstore.com/store/211/hillsboro-tx/details,401 Coke Ave,Hillsboro,TX,76645,US,254-582-2523,,,,,,,"monday - friday : 00:00-24:00, saturday : 00:00-24:00, sunday : 00:00-24:00",32.004274,-97.099919,,,,,
202,Litchfield Supercenter,https://www.cymbalstore.com/store/213/litchfield-il/details,1205 W Ferdon St,Litchfield,IL,62056,US,217-324-6195,,,,,,,"monday - friday : 00:00-24:00, saturday : 00:00-24:00, sunday : 00:00-24:00",39.185505,-89.668379,,,,,
203,Jasper Supercenter,https://www.cymbalstore.com/store/214/jasper-tx/details,800 W Gibson St,Jasper,TX,75951,US,409-384-1707,,,,,,,"monday - friday : 00:00-24:00, saturday : 00:00-24:00, sunday : 00:00-24:00",30.908235,-94.015462,,,,,
204,Norman Supercenter,https://www.cymbalstore.com/store/212/norman-ok/details,333 N Interstate Dr,Norman,OK,73069,US,405-329-4000,,,,,,,"monday - friday : 00:00-24:00, saturday : 00:00-24:00, sunday : 00:00-24:00",35.221587,-97.481153,,,,,
205,Selmer Supercenter,https://www.cymbalstore.com/store/218/selmer-tn/details,1017 Mulberry Ave,Selmer,TN,38375,US,731-645-7938,,,,,,,"monday - friday : 00:00-24:00, saturday : 00:00-24:00, sunday : 00:00-24:00",35.1396272,-88.5742543,,,,,
206,Lewisville Supercenter,https://www.cymbalstore.com/store/217/lewisville-tx/details,801 W Main St,Lewisville,TX,75067,US,972-436-3099,,,,,,,"monday - friday : 00:00-24:00, saturday : 00:00-24:00, sunday : 00:00-24:00",33.047228,-97.013954,,,,,
207,Sedalia Supercenter,https://www.cymbalstore.com/store/219/sedalia-mo/details,3201 W Broadway Blvd,Sedalia,MO,65301,US,660-826-7800,,,,,,,"monday - friday : 00:00-24:00, saturday : 00:00-24:00, sunday : 00:00-24:00",38.706715,-93.270907,,,,,
208,Marion Supercenter,https://www.cymbalstore.com/store/216/marion-il/details,2802 Outer Road Drive,Marion,IL,62959,US,618-997-5618,,,,,,,"monday - friday : 00:00-24:00, saturday : 00:00-24:00, sunday : 00:00-24:00",37.748171,-88.971464,,,,,
209,Yukon Supercenter,https://www.cymbalstore.com/store/221/yukon-ok/details,1200 Garth Brooks Blvd,Yukon,OK,73099,US,405-350-1900,,,,,,,"monday - friday : 00:00-24:00, saturday : 00:00-24:00, sunday : 00:00-24:00",35.490376,-97.763836,,,,,
210,Mount Vernon Supercenter,https://www.cymbalstore.com/store/224/mount-vernon-il/details,110 Davidson Rd,Mount Vernon,IL,62864,US,618-244-7119,,,,,,,"monday - friday : 00:00-24:00, saturday : 00:00-24:00, sunday : 00:00-24:00",38.309085,-88.958411,,,,,
211,Burleson Supercenter,https://www.cymbalstore.com/store/220/burleson-tx/details,951 Sw Wilshire Blvd,Burleson,TX,76028,US,817-572-9574,,,,,,,"monday - friday : 00:00-24:00, saturday : 00:00-24:00, sunday : 00:00-24:00",32.527749,-97.337823,,,,,
212,Sparta Supercenter,https://www.cymbalstore.com/store/222/sparta-il/details,1410 N Market St,Sparta,IL,62286,US,618-443-5800,,,,,,,"monday - friday : 00:00-24:00, saturday : 00:00-24:00, sunday : 00:00-24:00",38.1414384,-89.7017327,,,,,
213,Sulphur Supercenter,https://www.cymbalstore.com/store/225/sulphur-ok/details,2705 W Broadway Ave,Sulphur,OK,73086,US,580-622-6146,,,,,,,"monday - friday : 00:00-24:00, saturday : 00:00-24:00, sunday : 00:00-24:00",34.5038374,-97.0041868,,,,,
214,Atlanta Supercenter,https://www.cymbalstore.com/store/226/atlanta-tx/details,201 Loop 59,Atlanta,TX,75551,US,903-796-7916,,,,,,,"monday - friday : 00:00-24:00, saturday : 00:00-24:00, sunday : 00:00-24:00",33.115504,-94.184857,,,,,
215,El Reno Supercenter,https://www.cymbalstore.com/store/227/el-reno-ok/details,2400 S Country Club Rd,El Reno,OK,73036,US,405-262-7354,,,,,,,"monday - friday : 00:00-24:00, saturday : 00:00-24:00, sunday : 00:00-24:00",35.511165,-97.976009,,,,,
216,Trumann Supercenter,https://www.cymbalstore.com/store/229/trumann-ar/details,512 Industrial Park Dr,Trumann,AR,72472,US,870-483-1971,,,,,,,"monday - friday : 00:00-24:00, saturday : 00:00-24:00, sunday : 00:00-24:00",35.681492,-90.549868,,,,,
217,Cleburne Supercenter,https://www.cymbalstore.com/store/228/cleburne-tx/details,1616 W Henderson St,Cleburne,TX,76033,US,817-645-1575,,,,,,,"monday - friday : 00:00-24:00, saturday : 00:00-24:00, sunday : 00:00-24:00",32.341355,-97.41514,,,,,
218,Ada Supercenter,https://www.cymbalstore.com/store/231/ada-ok/details,1419 N Country Club Rd,Ada,OK,74820,US,580-332-2232,,,,,,,"monday - friday : 00:00-24:00, saturday : 00:00-24:00, sunday : 00:00-24:00",34.789127,-96.65614,,,,,
219,Paris Store,https://www.cymbalstore.com/store/230/paris-ar/details,1501 E Walnut St,Paris,AR,72855,US,479-963-2152,,,,,,,"monday - friday : 06:00-22:00, saturday : 06:00-22:00, sunday : 06:00-22:00",35.293369,-93.716195,,,,,
220,Anna Supercenter,https://www.cymbalstore.com/store/233/anna-il/details,300 Leigh Ave,Anna,IL,62906,US,618-833-8592,,,,,,,"monday - friday : 00:00-24:00, saturday : 00:00-24:00, sunday : 00:00-24:00",37.461908,-89.222998,,,,,
221,Atoka Store,https://www.cymbalstore.com/store/232/atoka-ok/details,1983 S Mississippi Ave,Atoka,OK,74525,US,580-889-6676,,,,,,,"monday - friday : 00:00-24:00, saturday : 00:00-24:00, sunday : 00:00-24:00",34.3662191,-96.1426364,,,,,
222,Kansas City Supercenter,https://www.cymbalstore.com/store/234/kansas-city-mo/details,8301 N Church Rd,Kansas City,MO,64158,US,816-792-4644,,,,,,,"monday - friday : 00:00-24:00, saturday : 00:00-24:00, sunday : 00:00-24:00",39.243164,-94.459216,,,,,
223,Pulaski Supercenter,https://www.cymbalstore.com/store/238/pulaski-tn/details,1655 W College St,Pulaski,TN,38478,US,931-363-7618,,,,,,,"monday - friday : 00:00-24:00, saturday : 00:00-24:00, sunday : 00:00-24:00",35.201555,-87.060372,,,,,
224,Commerce Supercenter,https://www.cymbalstore.com/store/240/commerce-tx/details,2701 State Highway 50,Commerce,TX,75428,US,903-886-3108,,,,,,,"monday - friday : 00:00-24:00, saturday : 00:00-24:00, sunday : 00:00-24:00",33.234935,-95.914764,,,,,
225,Rogers Gas Station,https://www.cymbalstore.com/store/241/rogers-ar/details,4206 S Pleasant Crossing Blvd,Rogers,AR,72758,US,479-636-0651,,,,,,,"monday - friday : 05:00-24:00, saturday : 05:00-24:00, sunday : 05:00-24:00",36.280919,-94.151696,,,,,
226,Kosciusko Supercenter,https://www.cymbalstore.com/store/239/kosciusko-ms/details,220 Veterans Memorial Dr,Kosciusko,MS,39090,US,662-289-3422,,,,,,,"monday - friday : 06:00-23:00, saturday : 06:00-23:00, sunday : 06:00-23:00",33.0549039,-89.5669509,,,,,
227,Crockett Supercenter,https://www.cymbalstore.com/store/236/crockett-tx/details,1225 E Loop 304,Crockett,TX,75835,US,936-544-5121,,,,,,,"monday - friday : 06:00-23:00, saturday : 06:00-23:00, sunday : 06:00-23:00",31.320306,-95.434461,,,,,
228,Harrisburg Supercenter,https://www.cymbalstore.com/store/237/harrisburg-il/details,710 S Commercial St,Harrisburg,IL,62946,US,618-252-0145,,,,,,,"monday - friday : 00:00-24:00, saturday : 00:00-24:00, sunday : 00:00-24:00",37.7282525,-88.532915,,,,,
229,Paola Supercenter,https://www.cymbalstore.com/store/242/paola-ks/details,310 Hedge Ln,Paola,KS,66071,US,913-294-5400,,,,,,,"monday - friday : 06:00-01:00, saturday : 06:00-01:00, sunday : 06:00-01:00",38.573605,-94.857295,,,,,
230,Winnfield Supercenter,https://www.cymbalstore.com/store/244/winnfield-la/details,5940 Highway 167 N,Winnfield,LA,71483,US,318-628-2194,,,,,,,"monday - friday : 06:00-23:00, saturday : 06:00-23:00, sunday : 06:00-23:00",31.950346,-92.656886,,,,,
231,Wentzville Supercenter,https://www.cymbalstore.com/store/243/wentzville-mo/details,1971 Wentzville Pkwy,Wentzville,MO,63385,US,636-327-5155,,,,,,,"monday - friday : 00:00-24:00, saturday : 00:00-24:00, sunday : 00:00-24:00",38.814137,-90.879016,,,,,
232,Crowley Gas Station,https://www.cymbalstore.com/store/245/crowley-tx/details,1301 E. Fm 1187,Crowley,TX,76036,US,817-297-4133,,,,,,,"monday - friday : 00:00-24:00, saturday : 00:00-24:00, sunday : 00:00-24:00",32.576633,-97.336527,,,,,
233,Henryetta Store,https://www.cymbalstore.com/store/247/henryetta-ok/details,605 E Main St,Henryetta,OK,74437,US,918-652-9676,,,,,,,"monday - friday : 00:00-24:00, saturday : 00:00-24:00, sunday : 00:00-24:00",35.438882,-95.974421,,,,,
234,Cleveland Supercenter,https://www.cymbalstore.com/store/249/cleveland-tx/details,831 Highway 59 S,Cleveland,TX,77327,US,281-592-2654,,,,,,,"monday - friday : 00:00-24:00, saturday : 00:00-24:00, sunday : 00:00-24:00",30.333624,-95.098051,,,,,
235,Mexia Supercenter,https://www.cymbalstore.com/store/248/mexia-tx/details,1406 E Milam St,Mexia,TX,76667,US,254-562-3831,,,,,,,"monday - friday : 00:00-24:00, saturday : 00:00-24:00, sunday : 00:00-24:00",31.683347,-96.456538,,,,,
236,Warsaw Supercenter,https://www.cymbalstore.com/store/250/warsaw-mo/details,103 W Polk St,Warsaw,MO,65355,US,660-438-7394,,,,,,,"monday - friday : 00:00-24:00, saturday : 00:00-24:00, sunday : 00:00-24:00",38.26173,-93.3713094,,,,,
237,Skiatook Supercenter,https://www.cymbalstore.com/store/246/skiatook-ok/details,700 W Rogers Blvd,Skiatook,OK,74070,US,918-396-1244,,,,,,,"monday - friday : 00:00-24:00, saturday : 00:00-24:00, sunday : 00:00-24:00",36.370696,-96.01132,,,,,
238,Mineola Supercenter,https://www.cymbalstore.com/store/251/mineola-tx/details,135 Ne Loop 564,Mineola,TX,75773,US,903-569-0180,,,,,,,"monday - friday : 00:00-24:00, saturday : 00:00-24:00, sunday : 00:00-24:00",32.689696,-95.481768,,,,,
239,Du Quoin Supercenter,https://www.cymbalstore.com/store/252/du-quoin-il/details,215 E Grantway St,Du Quoin,IL,62832,US,618-542-8438,,,,,,,"monday - friday : 00:00-24:00, saturday : 00:00-24:00, sunday : 00:00-24:00",37.997658,-89.238137,,,,,
240,Jerseyville Supercenter,https://www.cymbalstore.com/store/253/jerseyville-il/details,1316 S State St,Jerseyville,IL,62052,US,618-498-7744,,,,,,,"monday - friday : 00:00-24:00, saturday : 00:00-24:00, sunday : 00:00-24:00",39.103491,-90.318482,,,,,
241,Olney Supercenter,https://www.cymbalstore.com/store/254/olney-il/details,1001 North West,Olney,IL,62450,US,618-395-7317,,,,,,,"monday - friday : 00:00-24:00, saturday : 00:00-24:00, sunday : 00:00-24:00",38.749971,-88.097805,,,,,
242,Tupelo Supercenter,https://www.cymbalstore.com/store/258/tupelo-ms/details,3929 N Gloster St,Tupelo,MS,38804,US,662-840-8401,,,,,,,"monday - friday : 00:00-24:00, saturday : 00:00-24:00, sunday : 00:00-24:00",34.308824,-88.709889,,,,,
243,Rockwall Supercenter,https://www.cymbalstore.com/store/259/rockwall-tx/details,782 E Interstate 30,Rockwall,TX,75087,US,972-771-8309,,,,,,,"monday - friday : 00:00-24:00, saturday : 00:00-24:00, sunday : 00:00-24:00",32.902041,-96.461769,,,,,
244,Morganfield Supercenter,https://www.cymbalstore.com/store/257/morganfield-ky/details,901 Us Highway 60 E,Morganfield,KY,42437,US,270-389-1828,,,,,,,"monday - friday : 00:00-24:00, saturday : 00:00-24:00, sunday : 00:00-24:00",37.688625,-87.900008,,,,,
245,Waxahachie Supercenter,https://www.cymbalstore.com/store/260/waxahachie-tx/details,1200 N Highway 77,Waxahachie,TX,75165,US,972-937-3460,,,,,,,"monday - friday : 00:00-24:00, saturday : 00:00-24:00, sunday : 00:00-24:00",32.416996,-96.837937,,,,,
246,Hot Springs Supercenter,https://www.cymbalstore.com/store/261/hot-springs-ar/details,4019 Central Ave,Hot Springs,AR,71913,US,501-623-7605,,,,,,,"monday - friday : 00:00-24:00, saturday : 00:00-24:00, sunday : 00:00-24:00",34.454531,-93.060534,,,,,
247,Glen Carbon Supercenter,https://www.cymbalstore.com/store/256/glen-carbon-il/details,400 Junction Dr,Glen Carbon,IL,62034,US,618-692-0550,,,,,,,"monday - friday : 00:00-24:00, saturday : 00:00-24:00, sunday : 00:00-24:00",38.7753749,-89.952569,,,,,
248,Benton Supercenter,https://www.cymbalstore.com/store/262/benton-il/details,919 Giacone Dr,Benton,IL,62812,US,618-439-9453,,,,,,,"monday - friday : 00:00-24:00, saturday : 00:00-24:00, sunday : 00:00-24:00",38.000853,-88.93678,,,,,
249,Terrell Supercenter,https://www.cymbalstore.com/store/265/terrell-tx/details,1900 W Moore Ave,Terrell,TX,75160,US,972-563-7638,,,,,,,"monday - friday : 00:00-24:00, saturday : 00:00-24:00, sunday : 00:00-24:00",32.739723,-96.306024,,,,,
250,Grapevine Supercenter,https://www.cymbalstore.com/store/266/grapevine-tx/details,1601 W State Highway 114,Grapevine,TX,76051,US,817-421-4770,,,,,,,"monday - friday : 00:00-24:00, saturday : 00:00-24:00, sunday : 00:00-24:00",32.930782,-97.1017,,,,,
251,Savannah Supercenter,https://www.cymbalstore.com/store/268/savannah-tn/details,175 Ji Bell Ln,Savannah,TN,38372,US,731-925-3020,,,,,,,"monday - friday : 00:00-24:00, saturday : 00:00-24:00, sunday : 00:00-24:00",35.2239804,-88.2147838,,,,,
252,Dickson Supercenter,https://www.cymbalstore.com/store/264/dickson-tn/details,175 Beasley Dr,Dickson,TN,37055,US,615-446-4588,,,,,,,"monday - friday : 00:00-24:00, saturday : 00:00-24:00, sunday : 00:00-24:00",36.0599933,-87.3812037,,,,,
253,Bowie Supercenter,https://www.cymbalstore.com/store/271/bowie-tx/details,1341 Highway 287 N,Bowie,TX,76230,US,940-872-1166,,,,,,,"monday - friday : 00:00-24:00, saturday : 00:00-24:00, sunday : 00:00-24:00",33.540549,-97.837408,,,,,
254,Lawton Supercenter,https://www.cymbalstore.com/store/269/lawton-ok/details,1002 Nw Sheridan Rd,Lawton,OK,73505,US,580-355-9070,,,,,,,"monday - friday : 00:00-24:00, saturday : 00:00-24:00, sunday : 00:00-24:00",34.618772,-98.42438,,,,,
255,Franklin Supercenter,https://www.cymbalstore.com/store/272/franklin-tn/details,3600 Mallory Ln,Franklin,TN,37067,US,615-771-0929,,,,,,,"monday - friday : 00:00-24:00, saturday : 00:00-24:00, sunday : 00:00-24:00",35.93902,-86.819155,,,,,
256,Fulton Supercenter,https://www.cymbalstore.com/store/273/fulton-ms/details,100 Interchange Dr,Fulton,MS,38843,US,662-862-2143,,,,,,,"monday - friday : 00:00-24:00, saturday : 00:00-24:00, sunday : 00:00-24:00",34.2420797,-88.3972337,,,,,
257,Webb City Supercenter,https://www.cymbalstore.com/store/267/webb-city-mo/details,1212 S Madison St,Webb City,MO,64870,US,417-673-8288,,,,,,,"monday - friday : 00:00-24:00, saturday : 00:00-24:00, sunday : 00:00-24:00",37.133514,-94.478384,,,,,
258,Iuka Store,https://www.cymbalstore.com/store/274/iuka-ms/details,1110 Battleground Dr,Iuka,MS,38852,US,662-423-3054,,,,,,,"monday - friday : 06:00-22:00, saturday : 06:00-22:00, sunday : 06:00-22:00",34.80428,-88.20453,,,,,
259,Livingston Supercenter,https://www.cymbalstore.com/store/275/livingston-tx/details,1620 W Church St,Livingston,TX,77351,US,936-327-6370,,,,,,,"monday - friday : 00:00-24:00, saturday : 00:00-24:00, sunday : 00:00-24:00",30.716174,-94.954755,,,,,
260,Stigler Supercenter,https://www.cymbalstore.com/store/276/stigler-ok/details,1312 E Main St,Stigler,OK,74462,US,918-967-4637,,,,,,,"monday - friday : 00:00-24:00, saturday : 00:00-24:00, sunday : 00:00-24:00",35.2523274,-95.1084185,,,,,
261,Shreveport Supercenter,https://www.cymbalstore.com/store/278/shreveport-la/details,1645 E Bert Kouns Industrial Loop,Shreveport,LA,71105,US,318-797-5970,,,,,,,"monday - friday : 00:00-24:00, saturday : 00:00-24:00, sunday : 00:00-24:00",32.42845,-93.712166,,,,,
262,Heber Spgs Supercenter,https://www.cymbalstore.com/store/281/heber-spgs-ar/details,1500 Hwy 25b,Heber Spgs,AR,72543,US,501-362-8188,,,,,,,"monday - friday : 00:00-24:00, saturday : 00:00-24:00, sunday : 00:00-24:00",35.507388,-92.032234,,,,,
263,De Queen Supercenter,https://www.cymbalstore.com/store/279/de-queen-ar/details,926 E Collin Raye Dr,De Queen,AR,71832,US,870-642-2794,,,,,,,"monday - friday : 00:00-24:00, saturday : 00:00-24:00, sunday : 00:00-24:00",34.043471,-94.319058,,,,,
264,Moore Supercenter,https://www.cymbalstore.com/store/277/moore-ok/details,501 Sw 19th St,Moore,OK,73160,US,405-790-0021,,,,,,,"monday - friday : 00:00-24:00, saturday : 00:00-24:00, sunday : 00:00-24:00",35.322508,-97.493008,,,,,
265,Rockdale Supercenter,https://www.cymbalstore.com/store/280/rockdale-tx/details,709 W Us Highway 79,Rockdale,TX,76567,US,512-446-5851,,,,,,,"monday - friday : 00:00-24:00, saturday : 00:00-24:00, sunday : 00:00-24:00",30.642342,-97.03214,,,,,
266,Franklin Supercenter,https://www.cymbalstore.com/store/282/franklin-ky/details,1550 Nashville Rd,Franklin,KY,42134,US,270-586-9281,,,,,,,"monday - friday : 00:00-24:00, saturday : 00:00-24:00, sunday : 00:00-24:00",36.694977,-86.573045,,,,,
267,Bridge City Store,https://www.cymbalstore.com/store/283/bridge-city-tx/details,795 Texas Ave,Bridge City,TX,77611,US,409-735-2417,,,,,,,"monday - friday : 06:00-22:00, saturday : 06:00-22:00, sunday : 06:00-22:00",30.024796,-93.844527,,,,,
268,Mansfield Supercenter,https://www.cymbalstore.com/store/284/mansfield-tx/details,930 N Walnut Creek Dr Ste 800,Mansfield,TX,76063,US,817-473-1189,,,,,,,"monday - friday : 00:00-24:00, saturday : 00:00-24:00, sunday : 00:00-24:00",32.576044,-97.130022,,,,,
269,Huntsville Supercenter,https://www.cymbalstore.com/store/285/huntsville-tx/details,141 Interstate 45 S,Huntsville,TX,77340,US,936-293-1066,,,,,,,"monday - friday : 00:00-24:00, saturday : 00:00-24:00, sunday : 00:00-24:00",30.713817,-95.570575,,,,,
270,Jasper Supercenter,https://www.cymbalstore.com/store/287/jasper-al/details,1801 Highway 78 E,Jasper,AL,35501,US,205-384-1100,,,,,,,"monday - friday : 00:00-24:00, saturday : 00:00-24:00, sunday : 00:00-24:00",33.8429292,-87.254431,,,,,
271,Mcgehee Store,https://www.cymbalstore.com/store/289/mcgehee-ar/details,Us 65 South,Mcgehee,AR,71654,US,870-222-4184,,,,,,,"monday - friday : 07:00-22:00, saturday : 07:00-22:00, sunday : 07:00-22:00",33.604067,-91.381208,,,,,
272,Woodville Supercenter,https://www.cymbalstore.com/store/288/woodville-tx/details,115 Cobb Mill Rd,Woodville,TX,75979,US,409-283-8248,,,,,,,"monday - friday : 06:00-23:00, saturday : 06:00-23:00, sunday : 06:00-23:00",30.763779,-94.419491,,,,,
273,Gonzales Supercenter,https://www.cymbalstore.com/store/290/gonzales-tx/details,1114 E. Sarah Dewitt Drive,Gonzales,TX,78629,US,830-672-7573,,,,,,,"monday - friday : 00:00-24:00, saturday : 00:00-24:00, sunday : 00:00-24:00",29.5164259,-97.4491852,,,,,
274,Ennis Supercenter,https://www.cymbalstore.com/store/286/ennis-tx/details,700 E Ennis Ave,Ennis,TX,75119,US,972-875-9671,,,,,,,"monday - friday : 00:00-24:00, saturday : 00:00-24:00, sunday : 00:00-24:00",32.333377,-96.620823,,,,,
275,Lockhart Supercenter,https://www.cymbalstore.com/store/292/lockhart-tx/details,1904 S Colorado St,Lockhart,TX,78644,US,512-398-2333,,,,,,,"monday - friday : 00:00-24:00, saturday : 00:00-24:00, sunday : 00:00-24:00",29.85698,-97.665477,,,,,
276,Navasota Store,https://www.cymbalstore.com/store/293/navasota-tx/details,1712 E Washington Ave,Navasota,TX,77868,US,936-825-7541,,,,,,,"monday - friday : 07:00-23:00, saturday : 07:00-23:00, sunday : 07:00-23:00",30.394988,-96.071724,,,,,
277,Dardanelle Supercenter,https://www.cymbalstore.com/store/296/dardanelle-ar/details,1172 N. State Hwy 7,Dardanelle,AR,72834,US,479-229-2502,,,,,,,"monday - friday : 00:00-24:00, saturday : 00:00-24:00, sunday : 00:00-24:00",35.2179,-93.166461,,,,,
278,Central City Supercenter,https://www.cymbalstore.com/store/294/central-city-ky/details,1725 West Everely Br,Central City,KY,42330,US,270-754-1533,,,,,,,"monday - friday : 00:00-24:00, saturday : 00:00-24:00, sunday : 00:00-24:00",37.271457,-87.144458,,,,,
279,Eureka Supercenter,https://www.cymbalstore.com/store/295/eureka-mo/details,131 Erka Twn Cntr Dr,Eureka,MO,63025,US,636-587-9836,,,,,,,"monday - friday : 00:00-24:00, saturday : 00:00-24:00, sunday : 00:00-24:00",38.50661,-90.656737,,,,,
280,Porter Supercenter,https://www.cymbalstore.com/store/297/porter-tx/details,23561 Us Hwy 59,Porter,TX,77365,US,281-354-3400,,,,,,,"monday - friday : 00:00-24:00, saturday : 00:00-24:00, sunday : 00:00-24:00",30.106968,-95.233615,,,,,
281,Boaz Supercenter,https://www.cymbalstore.com/store/298/boaz-al/details,1972 Hwy 431,Boaz,AL,35957,US,256-593-0195,,,,,,,"monday - friday : 00:00-24:00, saturday : 00:00-24:00, sunday : 00:00-24:00",34.214766,-86.153387,,,,,
282,Bowling Green Supercenter,https://www.cymbalstore.com/store/299/bowling-green-ky/details,150 Walton Ave,Bowling Green,KY,42104,US,270-781-7903,,,,,,,"monday - friday : 00:00-24:00, saturday : 00:00-24:00, sunday : 00:00-24:00",36.948807,-86.433446,,,,,
283,Murphysboro Supercenter,https://www.cymbalstore.com/store/302/murphysboro-il/details,6495 Country Club Rd,Murphysboro,IL,62966,US,618-684-5041,,,,,,,"monday - friday : 00:00-24:00, saturday : 00:00-24:00, sunday : 00:00-24:00",37.759516,-89.28315,,,,,
284,Gadsden Supercenter,https://www.cymbalstore.com/store/301/gadsden-al/details,340 E Meighan Blvd,Gadsden,AL,35903,US,256-547-2637,,,,,,,"monday - friday : 00:00-24:00, saturday : 00:00-24:00, sunday : 00:00-24:00",34.012769,-85.987031,,,,,
285,Springfield Supercenter,https://www.cymbalstore.com/store/304/springfield-tn/details,3360 Tom Austin Hwy,Springfield,TN,37172,US,615-384-9561,,,,,,,"monday - friday : 00:00-24:00, saturday : 00:00-24:00, sunday : 00:00-24:00",36.483717,-86.888493,,,,,
286,Holly Springs Supercenter,https://www.cymbalstore.com/store/303/holly-springs-ms/details,950 Mackie Dr,Holly Springs,MS,38635,US,662-252-2211,,,,,,,"monday - friday : 06:00-23:00, saturday : 06:00-23:00, sunday : 06:00-23:00",34.7466316,-89.459003,,,,,
287,Arab Supercenter,https://www.cymbalstore.com/store/306/arab-al/details,1450 No. Brindlee Mt,Arab,AL,35016,US,256-586-8168,,,,,,,"monday - friday : 00:00-24:00, saturday : 00:00-24:00, sunday : 00:00-24:00",34.341887,-86.500136,,,,,
288,West Monroe Supercenter,https://www.cymbalstore.com/store/307/west-monroe-la/details,1025 Glenwood Dr,West Monroe,LA,71291,US,318-322-0127,,,,,,,"monday - friday : 00:00-24:00, saturday : 00:00-24:00, sunday : 00:00-24:00",32.508119,-92.154337,,,,,
289,Carthage Supercenter,https://www.cymbalstore.com/store/305/carthage-ms/details,905 Highway 16 W,Carthage,MS,39051,US,601-267-8374,,,,,,,"monday - friday : 06:00-23:00, saturday : 06:00-23:00, sunday : 06:00-23:00",32.7258051,-89.5474174,,,,,
290,Abbeville Supercenter,https://www.cymbalstore.com/store/309/abbeville-la/details,3005 Charity Street,Abbeville,LA,70510,US,337-893-6485,,,,,,,"monday - friday : 06:00-24:00, saturday : 06:00-24:00, sunday : 06:00-24:00",29.972971,-92.095051,,,,,
291,Manchester Supercenter,https://www.cymbalstore.com/store/308/manchester-tn/details,2518 Hillsboro Blvd,Manchester,TN,37355,US,931-728-6000,,,,,,,"monday - friday : 00:00-24:00, saturday : 00:00-24:00, sunday : 00:00-24:00",35.452676,-86.047354,,,,,
292,Crowley Supercenter,https://www.cymbalstore.com/store/310/crowley-la/details,729 Odd Fellows Rd,Crowley,LA,70526,US,337-783-6387,,,,,,,"monday - friday : 00:00-24:00, saturday : 00:00-24:00, sunday : 00:00-24:00",30.233198,-92.36465,,,,,
293,Jacksonville Supercenter,https://www.cymbalstore.com/store/300/jacksonville-al/details,1625 Pelham Rd S,Jacksonville,AL,36265,US,256-435-8100,,,,,,,"monday - friday : 00:00-24:00, saturday : 00:00-24:00, sunday : 00:00-24:00",33.78822,-85.765028,,,,,
294,Franklin Store,https://www.cymbalstore.com/store/311/franklin-la/details,200 Northwest Blvd,Franklin,LA,70538,US,337-828-2418,,,,,,,"monday - friday : 06:00-23:00, saturday : 06:00-23:00, sunday : 06:00-23:00",29.814155,-91.51306,,,,,
295,High Ridge Supercenter,https://www.cymbalstore.com/store/313/high-ridge-mo/details,2700 Ridge Point Dr,High Ridge,MO,63049,US,636-375-3201,,,,,,,"monday - friday : 00:00-24:00, saturday : 00:00-24:00, sunday : 00:00-24:00",38.462144,-90.521836,,,,,
296,Fayetteville Supercenter,https://www.cymbalstore.com/store/314/fayetteville-tn/details,1224 Huntsville Hwy,Fayetteville,TN,37334,US,931-433-3010,,,,,,,"monday - friday : 00:00-24:00, saturday : 00:00-24:00, sunday : 00:00-24:00",35.136734,-86.564496,,,,,
297,Ville Platte Supercenter,https://www.cymbalstore.com/store/312/ville-platte-la/details,891 E Lasalle St,Ville Platte,LA,70586,US,337-363-5623,,,,,,,"monday - friday : 06:00-24:00, saturday : 06:00-24:00, sunday : 06:00-24:00",30.687254,-92.260969,,,,,
298,Vandalia Supercenter,https://www.cymbalstore.com/store/317/vandalia-il/details,201 No. Mattes Avenu,Vandalia,IL,62471,US,618-283-4777,,,,,,,"monday - friday : 00:00-24:00, saturday : 00:00-24:00, sunday : 00:00-24:00",38.966414,-89.135519,,,,,
299,Arkadelphia Supercenter,https://www.cymbalstore.com/store/318/arkadelphia-ar/details,109 Wp Malone Dr,Arkadelphia,AR,71923,US,870-246-2459,,,,,,,"monday - friday : 00:00-24:00, saturday : 00:00-24:00, sunday : 00:00-24:00",34.119797,-93.096488,,,,,
300,Raymore Supercenter,https://www.cymbalstore.com/store/319/raymore-mo/details,2015 W Foxwood Dr,Raymore,MO,64083,US,816-322-5455,,,,,,,"monday - friday : 00:00-24:00, saturday : 00:00-24:00, sunday : 00:00-24:00",38.809975,-94.495531,,,,,
301,Attalla Supercenter,https://www.cymbalstore.com/store/316/attalla-al/details,973 Gilbert Ferry Rd Se,Attalla,AL,35954,US,256-538-3811,,,,,,,"monday - friday : 00:00-24:00, saturday : 00:00-24:00, sunday : 00:00-24:00",33.993612,-86.093629,,,,,
302,Marlin Store,https://www.cymbalstore.com/store/320/marlin-tx/details,600 S State Highway 6,Marlin,TX,76661,US,254-883-5556,,,,,,,"monday - friday : 06:00-23:00, saturday : 06:00-23:00, sunday : 06:00-23:00",31.304425,-96.876786,,,,,
303,Oneonta Supercenter,https://www.cymbalstore.com/store/315/oneonta-al/details,2453 2nd Ave E,Oneonta,AL,35121,US,205-625-6474,,,,,,,"monday - friday : 00:00-24:00, saturday : 00:00-24:00, sunday : 00:00-24:00",33.971218,-86.446599,,,,,
304,Bryan Supercenter,https://www.cymbalstore.com/store/322/bryan-tx/details,2200 Briarcrest Dr,Bryan,TX,77802,US,979-776-6441,,,,,,,"monday - friday : 00:00-24:00, saturday : 00:00-24:00, sunday : 00:00-24:00",30.6574,-96.330396,,,,,
305,Mansfield Supercenter,https://www.cymbalstore.com/store/323/mansfield-la/details,7292 Hwy #509,Mansfield,LA,71052,US,318-872-5711,,,,,,,"monday - friday : 06:00-23:00, saturday : 06:00-23:00, sunday : 06:00-23:00",32.052932,-93.68175,,,,,
306,Brenham Supercenter,https://www.cymbalstore.com/store/321/brenham-tx/details,203 Us Loop 290 West,Brenham,TX,77833,US,979-836-1118,,,,,,,"monday - friday : 00:00-24:00, saturday : 00:00-24:00, sunday : 00:00-24:00",30.139992,-96.393143,,,,,
307,Higginsville Store,https://www.cymbalstore.com/store/326/higginsville-mo/details,1180 W 19th St,Higginsville,MO,64037,US,660-584-7717,,,,,,,"monday - friday : 07:00-22:00, saturday : 07:00-22:00, sunday : 07:00-22:00",39.077943,-93.736752,,,,,
308,Bristow Supercenter,https://www.cymbalstore.com/store/324/bristow-ok/details,105 W Highway 16,Bristow,OK,74010,US,918-367-3335,,,,,,,"monday - friday : 00:00-24:00, saturday : 00:00-24:00, sunday : 00:00-24:00",35.844007,-96.394808,,,,,
309,Richmond Supercenter,https://www.cymbalstore.com/store/325/richmond-mo/details,908 Walton Way,Richmond,MO,64085,US,816-776-5834,,,,,,,"monday - friday : 06:00-01:00, saturday : 06:00-01:00, sunday : 06:00-01:00",39.263479,-93.963432,,,,,
310,Jay Store,https://www.cymbalstore.com/store/327/jay-ok/details,1107 S Main St,Jay,OK,74346,US,918-253-4861,,,,,,,"monday - friday : 07:00-21:00, saturday : 07:00-21:00, sunday : 07:00-21:00",36.419232,-94.806089,,,,,
311,Waterloo Supercenter,https://www.cymbalstore.com/store/328/waterloo-il/details,961 N Market St,Waterloo,IL,62298,US,618-939-3416,,,,,,,"monday - friday : 00:00-24:00, saturday : 00:00-24:00, sunday : 00:00-24:00",38.358741,-90.157744,,,,,
312,Anniston Supercenter,https://www.cymbalstore.com/store/329/anniston-al/details,5560 Mcclellan Blvd,Anniston,AL,36206,US,256-820-3326,,,,,,,"monday - friday : 00:00-24:00, saturday : 00:00-24:00, sunday : 00:00-24:00",33.720093,-85.820134,,,,,
313,Huntsville Supercenter,https://www.cymbalstore.com/store/332/huntsville-al/details,6140a Univ Drive,Huntsville,AL,35806,US,256-837-7272,,,,,,,"monday - friday : 00:00-24:00, saturday : 00:00-24:00, sunday : 00:00-24:00",34.747008,-86.675822,,,,,
314,Victoria Supercenter,https://www.cymbalstore.com/store/330/victoria-tx/details,9002 N Navarro St,Victoria,TX,77904,US,361-573-0041,,,,,,,"monday - friday : 00:00-24:00, saturday : 00:00-24:00, sunday : 00:00-24:00",28.877997,-96.993928,,,,,
315,Jackson Supercenter,https://www.cymbalstore.com/store/335/jackson-tn/details,2196 Emporium Dr,Jackson,TN,38305,US,731-664-1157,,,,,,,"monday - friday : 00:00-24:00, saturday : 00:00-24:00, sunday : 00:00-24:00",35.668347,-88.851516,,,,,
316,Sulphur Supercenter,https://www.cymbalstore.com/store/331/sulphur-la/details,525 N Cities Service Hwy,Sulphur,LA,70663,US,337-625-2849,,,,,,,"monday - friday : 00:00-24:00, saturday : 00:00-24:00, sunday : 00:00-24:00",30.233061,-93.328042,,,,,
317,Beaver Dam Supercenter,https://www.cymbalstore.com/store/333/beaver-dam-ky/details,1701 N Main St,Beaver Dam,KY,42320,US,270-274-9608,,,,,,,"monday - friday : 00:00-24:00, saturday : 00:00-24:00, sunday : 00:00-24:00",37.429567,-86.880124,,,,,
318,Carlinville Supercenter,https://www.cymbalstore.com/store/334/carlinville-il/details,18600 Shipman Blackt,Carlinville,IL,62626,US,217-854-7082,,,,,,,"monday - friday : 06:00-24:00, saturday : 06:00-24:00, sunday : 06:00-24:00",39.267994,-89.894417,,,,,
319,Sheridan Supercenter,https://www.cymbalstore.com/store/336/sheridan-ar/details,1308 S Rock St,Sheridan,AR,72150,US,870-942-7171,,,,,,,"monday - friday : 00:00-24:00, saturday : 00:00-24:00, sunday : 00:00-24:00",34.291348,-92.397163,,,,,
320,Lamar Supercenter,https://www.cymbalstore.com/store/338/lamar-mo/details,29 Sw 1st Ln,Lamar,MO,64759,US,417-682-5516,,,,,,,"monday - friday : 00:00-24:00, saturday : 00:00-24:00, sunday : 00:00-24:00",37.497069,-94.302316,,,,,
321,Fredericktown Supercenter,https://www.cymbalstore.com/store/337/fredericktown-mo/details,1025 Walton Dr,Fredericktown,MO,63645,US,573-783-5581,,,,,,,"monday - friday : 06:00-23:00, saturday : 06:00-23:00, sunday : 06:00-23:00",37.5589096,-90.3197291,,,,,
322,Checotah Supercenter,https://www.cymbalstore.com/store/340/checotah-ok/details,131 Paul Carr Dr,Checotah,OK,74426,US,918-473-2201,,,,,,,"monday - friday : 00:00-24:00, saturday : 00:00-24:00, sunday : 00:00-24:00",35.470025,-95.534337,,,,,
323,Fordyce Store,https://www.cymbalstore.com/store/339/fordyce-ar/details,1123 Highway 79 167 Byp,Fordyce,AR,71742,US,870-352-5167,,,,,,,"monday - friday : 07:00-22:00, saturday : 07:00-22:00, sunday : 07:00-22:00",33.820498,-92.435566,,,,,
324,Marysville Supercenter,https://www.cymbalstore.com/store/341/marysville-ks/details,1174 Pony Express Hwy,Marysville,KS,66508,US,785-562-2390,,,,,,,"monday - friday : 00:00-24:00, saturday : 00:00-24:00, sunday : 00:00-24:00",39.843391,-96.605108,,,,,
325,Hiawatha Supercenter,https://www.cymbalstore.com/store/342/hiawatha-ks/details,701 Hopi St,Hiawatha,KS,66434,US,785-742-7445,,,,,,,"monday - friday : 00:00-24:00, saturday : 00:00-24:00, sunday : 00:00-24:00",39.846387,-95.560036,,,,,
326,Palestine Supercenter,https://www.cymbalstore.com/store/345/palestine-tx/details,2223 S Loop 256,Palestine,TX,75801,US,903-729-4441,,,,,,,"monday - friday : 00:00-24:00, saturday : 00:00-24:00, sunday : 00:00-24:00",31.736555,-95.616596,,,,,
327,Monticello Supercenter,https://www.cymbalstore.com/store/348/monticello-ar/details,427 Highway 425 N,Monticello,AR,71655,US,870-367-0409,,,,,,,"monday - friday : 00:00-24:00, saturday : 00:00-24:00, sunday : 00:00-24:00",33.63588,-91.80475,,,,,
328,Augusta Supercenter,https://www.cymbalstore.com/store/346/augusta-ks/details,719 W 7th Ave,Augusta,KS,67010,US,316-775-2254,,,,,,,"monday - friday : 00:00-24:00, saturday : 00:00-24:00, sunday : 00:00-24:00",37.677977,-96.987658,,,,,
329,York Supercenter,https://www.cymbalstore.com/store/350/york-ne/details,101 E David Dr,York,NE,68467,US,402-362-3366,,,,,,,"monday - friday : 00:00-24:00, saturday : 00:00-24:00, sunday : 00:00-24:00",40.82787,-97.593326,,,,,
330,Indianola Supercenter,https://www.cymbalstore.com/store/347/indianola-ms/details,633 Highway 82 W,Indianola,MS,38751,US,662-887-3320,,,,,,,"monday - friday : 06:00-23:00, saturday : 06:00-23:00, sunday : 06:00-23:00",33.459493,-90.663215,,,,,
331,El Campo Supercenter,https://www.cymbalstore.com/store/344/el-campo-tx/details,3413 West Loop,El Campo,TX,77437,US,979-543-7286,,,,,,,"monday - friday : 00:00-24:00, saturday : 00:00-24:00, sunday : 00:00-24:00",29.216807,-96.292641,,,,,
332,Taylorville Supercenter,https://www.cymbalstore.com/store/343/taylorville-il/details,1530 W Springfield Rd,Taylorville,IL,62568,US,217-287-7219,,,,,,,"monday - friday : 00:00-24:00, saturday : 00:00-24:00, sunday : 00:00-24:00",39.569337,-89.314967,,,,,
333,Tomball Supercenter,https://www.cymbalstore.com/store/351/tomball-tx/details,25800 Kuykendahl Rd,Tomball,TX,77375,US,832-761-8499,,,,,,,"monday - friday : 06:00-24:00, saturday : 06:00-24:00, sunday : 06:00-24:00",30.134346,-95.550647,,,,,
334,Chester Store,https://www.cymbalstore.com/store/352/chester-il/details,Hwy 150/2206 State S,Chester,IL,62233,US,618-826-5041,,,,,,,"monday - friday : 06:00-24:00, saturday : 06:00-24:00, sunday : 06:00-24:00",37.925334,-89.804487,,,,,
335,Graham Supercenter,https://www.cymbalstore.com/store/353/graham-tx/details,2121 State Highway 16 S,Graham,TX,76450,US,940-549-7714,,,,,,,"monday - friday : 00:00-24:00, saturday : 00:00-24:00, sunday : 00:00-24:00",33.082267,-98.58074,,,,,
336,Owensville Supercenter,https://www.cymbalstore.com/store/354/owensville-mo/details,1888 Highway 28,Owensville,MO,65066,US,573-437-4156,,,,,,,"monday - friday : 00:00-24:00, saturday : 00:00-24:00, sunday : 00:00-24:00",38.3531394,-91.4818482,,,,,
337,Opelika Supercenter,https://www.cymbalstore.com/store/355/opelika-al/details,2900 Pepperell Pkwy,Opelika,AL,36801,US,334-745-9333,,,,,,,"monday - friday : 00:00-24:00, saturday : 00:00-24:00, sunday : 00:00-24:00",32.637874,-85.421882,,,,,
338,Versailles Supercenter,https://www.cymbalstore.com/store/357/versailles-mo/details,1003 W Newton St,Versailles,MO,65084,US,573-378-4668,,,,,,,"monday - friday : 00:00-24:00, saturday : 00:00-24:00, sunday : 00:00-24:00",38.4342477,-92.8588751,,,,,
339,Auburn Supercenter,https://www.cymbalstore.com/store/356/auburn-al/details,1717 S College St,Auburn,AL,36832,US,334-821-2493,,,,,,,"monday - friday : 00:00-24:00, saturday : 00:00-24:00, sunday : 00:00-24:00",32.570858,-85.49657,,,,,
340,Alma Supercenter,https://www.cymbalstore.com/store/358/alma-ar/details,367 W Cherry St,Alma,AR,72921,US,479-632-4585,,,,,,,"monday - friday : 00:00-24:00, saturday : 00:00-24:00, sunday : 00:00-24:00",35.479083,-94.22879,,,,,
341,Collinsville Supercenter,https://www.cymbalstore.com/store/361/collinsville-il/details,1040 Collinsville Crossing Blvd,Collinsville,IL,62234,US,618-344-4480,,,,,,,"monday - friday : 00:00-24:00, saturday : 00:00-24:00, sunday : 00:00-24:00",38.674715,-90.017291,,,,,
342,Fayetteville Supercenter,https://www.cymbalstore.com/store/359/fayetteville-ar/details,3919 No. Mall Ave,Fayetteville,AR,72703,US,479-443-7679,,,,,,,"monday - friday : 00:00-24:00, saturday : 00:00-24:00, sunday : 00:00-24:00",36.122616,-94.15276,,,,,
343,Winfield Supercenter,https://www.cymbalstore.com/store/362/winfield-al/details,2575 Us Highway 43,Winfield,AL,35594,US,205-487-4359,,,,,,,"monday - friday : 00:00-24:00, saturday : 00:00-24:00, sunday : 00:00-24:00",33.9352,-87.840615,,,,,
344,Marshall Supercenter,https://www.cymbalstore.com/store/363/marshall-mo/details,855 Cherokee Dr,Marshall,MO,65340,US,660-886-6852,,,,,,,"monday - friday : 00:00-24:00, saturday : 00:00-24:00, sunday : 00:00-24:00",39.111569,-93.216447,,,,,
345,Cushing Supercenter,https://www.cymbalstore.com/store/360/cushing-ok/details,3100 E Main St,Cushing,OK,74023,US,918-225-0578,,,,,,,"monday - friday : 00:00-24:00, saturday : 00:00-24:00, sunday : 00:00-24:00",35.987433,-96.721249,,,,,
346,Madisonville Supercenter,https://www.cymbalstore.com/store/366/madisonville-tn/details,4525 Highway 411,Madisonville,TN,37354,US,423-442-5237,,,,,,,"monday - friday : 00:00-24:00, saturday : 00:00-24:00, sunday : 00:00-24:00",35.512288,-84.360078,,,,,
347,Pearl Supercenter,https://www.cymbalstore.com/store/365/pearl-ms/details,5520 Highway 80 E,Pearl,MS,39208,US,601-939-0281,,,,,,,"monday - friday : 00:00-24:00, saturday : 00:00-24:00, sunday : 00:00-24:00",32.286656,-90.046349,,,,,
348,Center Supercenter,https://www.cymbalstore.com/store/364/center-tx/details,765 Hurst Street,Center,TX,75935,US,936-598-6131,,,,,,,"monday - friday : 00:00-24:00, saturday : 00:00-24:00, sunday : 00:00-24:00",31.80172,-94.194186,,,,,
349,Parsons Supercenter,https://www.cymbalstore.com/store/368/parsons-ks/details,3201 No 16th St,Parsons,KS,67357,US,620-421-0375,,,,,,,"monday - friday : 00:00-24:00, saturday : 00:00-24:00, sunday : 00:00-24:00",37.372299,-95.25583,,,,,
350,Dodge City Supercenter,https://www.cymbalstore.com/store/372/dodge-city-ks/details,1905 N 14th Ave,Dodge City,KS,67801,US,620-225-3917,,,,,,,"monday - friday : 00:00-24:00, saturday : 00:00-24:00, sunday : 00:00-24:00",37.768588,-100.035792,,,,,
351,Winfield Supercenter,https://www.cymbalstore.com/store/369/winfield-ks/details,2202 Pike Rd,Winfield,KS,67156,US,620-221-6233,,,,,,,"monday - friday : 00:00-24:00, saturday : 00:00-24:00, sunday : 00:00-24:00",37.22725,-96.992729,,,,,
352,Granbury Supercenter,https://www.cymbalstore.com/store/371/granbury-tx/details,735 E Highway 377,Granbury,TX,76048,US,817-573-3791,,,,,,,"monday - friday : 00:00-24:00, saturday : 00:00-24:00, sunday : 00:00-24:00",32.432088,-97.780249,,,,,
353,Wellington Supercenter,https://www.cymbalstore.com/store/370/wellington-ks/details,2022 E 16th St,Wellington,KS,67152,US,620-326-2261,,,,,,,"monday - friday : 00:00-24:00, saturday : 00:00-24:00, sunday : 00:00-24:00",37.273436,-97.373226,,,,,
354,Coweta Supercenter,https://www.cymbalstore.com/store/374/coweta-ok/details,11207 S State Highway 51,Coweta,OK,74429,US,918-486-6511,,,,,,,"monday - friday : 00:00-24:00, saturday : 00:00-24:00, sunday : 00:00-24:00",36.001683,-95.677254,,,,,
355,Huntsville Supercenter,https://www.cymbalstore.com/store/373/huntsville-ar/details,157 Gary Hatfield Way,Huntsville,AR,72740,US,479-738-2001,,,,,,,"monday - friday : 00:00-24:00, saturday : 00:00-24:00, sunday : 00:00-24:00",36.1128042,-93.7159682,,,,,
356,Bossier City Supercenter,https://www.cymbalstore.com/store/376/bossier-city-la/details,2536 Airline Dr,Bossier City,LA,71111,US,318-747-0173,,,,,,,"monday - friday : 00:00-24:00, saturday : 00:00-24:00, sunday : 00:00-24:00",32.548268,-93.706324,,,,,
357,Sumter Neighborhood Market,https://www.cymbalstore.com/store/377/sumter-sc/details,343 Pinewood Rd,Sumter,SC,29150,US,803-305-6238,,,,,,,"monday - friday : 06:00-24:00, saturday : 06:00-24:00, sunday : 06:00-24:00",33.906164,-80.378092,,,,,
358,Huntsville Supercenter,https://www.cymbalstore.com/store/375/huntsville-al/details,3031 Memorial Pkwy Sw,Huntsville,AL,35801,US,256-536-2870,,,,,,,"monday - friday : 00:00-24:00, saturday : 00:00-24:00, sunday : 00:00-24:00",34.7030172,-86.5853922,,,,,
359,Holton Supercenter,https://www.cymbalstore.com/store/378/holton-ks/details,427 S Arizona Ave,Holton,KS,66436,US,785-364-4148,,,,,,,"monday - friday : 00:00-24:00, saturday : 00:00-24:00, sunday : 00:00-24:00",39.460818,-95.751037,,,,,
360,Ozark Supercenter,https://www.cymbalstore.com/store/379/ozark-mo/details,2004 W Marler Ln,Ozark,MO,65721,US,417-581-2761,,,,,,,"monday - friday : 00:00-24:00, saturday : 00:00-24:00, sunday : 00:00-24:00",37.001223,-93.22794,,,,,
361,Silsbee Supercenter,https://www.cymbalstore.com/store/383/silsbee-tx/details,1100 Us Highway 96 N,Silsbee,TX,77656,US,409-385-0782,,,,,,,"monday - friday : 05:00-24:00, saturday : 05:00-24:00, sunday : 05:00-24:00",30.340472,-94.146959,,,,,
362,Ottawa Supercenter,https://www.cymbalstore.com/store/382/ottawa-ks/details,2101 S Princeton St,Ottawa,KS,66067,US,785-242-9222,,,,,,,"monday - friday : 00:00-24:00, saturday : 00:00-24:00, sunday : 00:00-24:00",38.581196,-95.264337,,,,,
363,Lumberton Supercenter,https://www.cymbalstore.com/store/384/lumberton-tx/details,100 No. Lhs Drive,Lumberton,TX,77657,US,409-755-1963,,,,,,,"monday - friday : 06:00-24:00, saturday : 06:00-24:00, sunday : 06:00-24:00",30.258479,-94.216602,,,,,
364,Chandler Supercenter,https://www.cymbalstore.com/store/387/chandler-ok/details,3100 E 1st St,Chandler,OK,74834,US,405-258-0541,,,,,,,"monday - friday : 00:00-24:00, saturday : 00:00-24:00, sunday : 00:00-24:00",35.711749,-96.842036,,,,,
365,Cuero Store,https://www.cymbalstore.com/store/385/cuero-tx/details,1202 E Broadway St,Cuero,TX,77954,US,361-275-5796,,,,,,,"monday - friday : 00:00-24:00, saturday : 00:00-24:00, sunday : 00:00-24:00",29.089432,-97.271237,,,,,
366,Jennings Supercenter,https://www.cymbalstore.com/store/386/jennings-la/details,303 E Interstate Dr,Jennings,LA,70546,US,337-824-4838,,,,,,,"monday - friday : 00:00-24:00, saturday : 00:00-24:00, sunday : 00:00-24:00",30.244584,-92.659001,,,,,
367,Copperas Cove Supercenter,https://www.cymbalstore.com/store/381/copperas-cove-tx/details,2720 E Highway 190,Copperas Cove,TX,76522,US,254-542-7600,,,,,,,"monday - friday : 00:00-24:00, saturday : 00:00-24:00, sunday : 00:00-24:00",31.118184,-97.870857,,,,,
368,Fort Smith Supercenter,https://www.cymbalstore.com/store/388/fort-smith-ar/details,2100 No. 62nd St.,Fort Smith,AR,72904,US,479-785-5964,,,,,,,"monday - friday : 00:00-24:00, saturday : 00:00-24:00, sunday : 00:00-24:00",35.399753,-94.363077,,,,,
369,Waverly Supercenter,https://www.cymbalstore.com/store/390/waverly-tn/details,275 Walton Dr,Waverly,TN,37185,US,931-296-9235,,,,,,,"monday - friday : 00:00-24:00, saturday : 00:00-24:00, sunday : 00:00-24:00",36.084335,-87.832573,,,,,
370,Weatherford Supercenter,https://www.cymbalstore.com/store/392/weatherford-ok/details,1349 E Eagle Rd,Weatherford,OK,73096,US,580-772-1408,,,,,,,"monday - friday : 00:00-24:00, saturday : 00:00-24:00, sunday : 00:00-24:00",35.524104,-98.690842,,,,,
371,Jackson Supercenter,https://www.cymbalstore.com/store/393/jackson-tn/details,2171 S Highland Ave,Jackson,TN,38301,US,731-422-1614,,,,,,,"monday - friday : 00:00-24:00, saturday : 00:00-24:00, sunday : 00:00-24:00",35.551073,-88.810955,,,,,
372,Tupelo Supercenter,https://www.cymbalstore.com/store/391/tupelo-ms/details,2270 W Main St,Tupelo,MS,38801,US,662-844-4011,,,,,,,"monday - friday : 00:00-24:00, saturday : 00:00-24:00, sunday : 00:00-24:00",34.258167,-88.741172,,,,,
373,Edmond Supercenter,https://www.cymbalstore.com/store/389/edmond-ok/details,1225 W I-35 Frontage,Edmond,OK,73034,US,405-348-8005,,,,,,,"monday - friday : 00:00-24:00, saturday : 00:00-24:00, sunday : 00:00-24:00",35.640173,-97.429241,,,,,
374,Anderson Supercenter,https://www.cymbalstore.com/store/396/anderson-sc/details,3812 Liberty Hwy,Anderson,SC,29621,US,864-225-1800,,,,,,,"monday - friday : 06:00-24:00, saturday : 06:00-24:00, sunday : 06:00-24:00",34.554437,-82.6786822,,,,,
375,Moulton Supercenter,https://www.cymbalstore.com/store/394/moulton-al/details,15445 Highway 24,Moulton,AL,35650,US,256-974-1128,,,,,,,"monday - friday : 00:00-24:00, saturday : 00:00-24:00, sunday : 00:00-24:00",34.4955794,-87.2769413,,,,,
376,Mission Supercenter,https://www.cymbalstore.com/store/395/mission-tx/details,2410 E Expressway 83,Mission,TX,78572,US,956-580-3393,,,,,,,"monday - friday : 00:00-24:00, saturday : 00:00-24:00, sunday : 00:00-24:00",26.193521,-98.2869487,,,,,
377,Longview Supercenter,https://www.cymbalstore.com/store/398/longview-tx/details,515 E Loop 281,Longview,TX,75605,US,903-663-4446,,,,,,,"monday - friday : 00:00-24:00, saturday : 00:00-24:00, sunday : 00:00-24:00",32.542098,-94.727504,,,,,
378,Mcallen Supercenter,https://www.cymbalstore.com/store/397/mcallen-tx/details,1200 E Jackson Ave,Mcallen,TX,78503,US,956-686-4311,,,,,,,"monday - friday : 00:00-24:00, saturday : 00:00-24:00, sunday : 00:00-24:00",26.188376,-98.209872,,,,,
379,Longview Supercenter,https://www.cymbalstore.com/store/399/longview-tx/details,2440 Gilmer Rd,Longview,TX,75604,US,903-297-1121,,,,,,,"monday - friday : 00:00-24:00, saturday : 00:00-24:00, sunday : 00:00-24:00",32.531894,-94.78483,,,,,
380,Conroe Supercenter,https://www.cymbalstore.com/store/400/conroe-tx/details,1407 N Loop 336 W,Conroe,TX,77304,US,936-788-5400,,,,,,,"monday - friday : 00:00-24:00, saturday : 00:00-24:00, sunday : 00:00-24:00",30.331402,-95.479103,,,,,
381,Plaquemine Supercenter,https://www.cymbalstore.com/store/401/plaquemine-la/details,59690 Belleview Dr,Plaquemine,LA,70764,US,225-687-2550,,,,,,,"monday - friday : 06:00-22:00, saturday : 06:00-22:00, sunday : 06:00-22:00",30.263844,-91.254829,,,,,
382,Russellville Supercenter,https://www.cymbalstore.com/store/403/russellville-al/details,13675 Highway 43,Russellville,AL,35653,US,256-332-7382,,,,,,,"monday - friday : 00:00-24:00, saturday : 00:00-24:00, sunday : 00:00-24:00",34.495318,-87.728925,,,,,
383,Leesville Supercenter,https://www.cymbalstore.com/store/405/leesville-la/details,2204 S 5th St,Leesville,LA,71446,US,337-238-9041,,,,,,,"monday - friday : 00:00-24:00, saturday : 00:00-24:00, sunday : 00:00-24:00",31.118636,-93.274624,,,,,
384,San Marcos Supercenter,https://www.cymbalstore.com/store/404/san-marcos-tx/details,1015 Highway 80,San Marcos,TX,78666,US,512-353-0617,,,,,,,"monday - friday : 00:00-24:00, saturday : 00:00-24:00, sunday : 00:00-24:00",29.8834396,-97.9121923,,,,,
385,Smyrna Supercenter,https://www.cymbalstore.com/store/406/smyrna-tn/details,570 Enon Springs Rd E,Smyrna,TN,37167,US,615-355-1029,,,,,,,"monday - friday : 00:00-24:00, saturday : 00:00-24:00, sunday : 00:00-24:00",35.970935,-86.495862,,,,,
386,Killeen Supercenter,https://www.cymbalstore.com/store/407/killeen-tx/details,1400 Lowes Blvd,Killeen,TX,76542,US,254-526-4102,,,,,,,"monday - friday : 00:00-24:00, saturday : 00:00-24:00, sunday : 00:00-24:00",31.089533,-97.729372,,,,,
387,Haleyville Supercenter,https://www.cymbalstore.com/store/409/haleyville-al/details,42466 Highway 195,Haleyville,AL,35565,US,205-486-9498,,,,,,,"monday - friday : 00:00-24:00, saturday : 00:00-24:00, sunday : 00:00-24:00",34.2405233,-87.5987915,,,,,
388,Breaux Bridge Supercenter,https://www.cymbalstore.com/store/402/breaux-bridge-la/details,1932 Rees St,Breaux Bridge,LA,70517,US,337-332-1280,,,,,,,"monday - friday : 06:00-23:00, saturday : 06:00-23:00, sunday : 06:00-23:00",30.293263,-91.910347,,,,,
389,Murray Supercenter,https://www.cymbalstore.com/store/410/murray-ky/details,809 N 12th St,Murray,KY,42071,US,270-753-2195,,,,,,,"monday - friday : 00:00-24:00, saturday : 00:00-24:00, sunday : 00:00-24:00",36.627014,-88.317878,,,,,
390,Port Arthur Supercenter,https://www.cymbalstore.com/store/408/port-arthur-tx/details,8585 Memorial Blvd,Port Arthur,TX,77640,US,409-727-4667,,,,,,,"monday - friday : 06:00-24:00, saturday : 06:00-24:00, sunday : 06:00-24:00",29.942076,-93.9937,,,,,
391,Houston Store,https://www.cymbalstore.com/store/411/houston-ms/details,660 E Madison St,Houston,MS,38851,US,662-456-5711,,,,,,,"monday - friday : 06:00-21:00, saturday : 06:00-21:00, sunday : 06:00-21:00",33.894702,-88.989563,,,,,
392,Port Isabel Supercenter,https://www.cymbalstore.com/store/413/port-isabel-tx/details,1401 State Highway 100,Port Isabel,TX,78578,US,956-943-1387,,,,,,,"monday - friday : 00:00-24:00, saturday : 00:00-24:00, sunday : 00:00-24:00",26.068984,-97.222507,,,,,
393,Wichita Falls Supercenter,https://www.cymbalstore.com/store/414/wichita-falls-tx/details,5131 Greenbriar Rd,Wichita Falls,TX,76302,US,940-397-9650,,,,,,,"monday - friday : 00:00-24:00, saturday : 00:00-24:00, sunday : 00:00-24:00",33.850603,-98.501632,,,,,
394,Athens Supercenter,https://www.cymbalstore.com/store/412/athens-tx/details,1405 E Tyler St,Athens,TX,75751,US,903-677-5400,,,,,,,"monday - friday : 00:00-24:00, saturday : 00:00-24:00, sunday : 00:00-24:00",32.210394,-95.832943,,,,,
395,Broussard Supercenter,https://www.cymbalstore.com/store/415/broussard-la/details,123 Saint Nazaire Rd,Broussard,LA,70518,US,337-837-8886,,,,,,,"monday - friday : 00:00-24:00, saturday : 00:00-24:00, sunday : 00:00-24:00",30.144151,-91.943449,,,,,
396,Murfreesboro Supercenter,https://www.cymbalstore.com/store/416/murfreesboro-tn/details,140 Joe B Jackson Parkway,Murfreesboro,TN,37127,US,615-867-7512,,,,,,,"monday - friday : 06:00-01:00, saturday : 06:00-01:00, sunday : 06:00-01:00",35.775172,-86.399845,,,,,
397,Fairbury Supercenter,https://www.cymbalstore.com/store/418/fairbury-ne/details,2831 Highway 15,Fairbury,NE,68352,US,402-729-3394,,,,,,,"monday - friday : 06:00-24:00, saturday : 06:00-24:00, sunday : 06:00-24:00",40.162702,-97.175372,,,,,
398,Wichita Falls Supercenter,https://www.cymbalstore.com/store/420/wichita-falls-tx/details,2700 Central Fwy,Wichita Falls,TX,76306,US,940-851-0629,,,,,,,"monday - friday : 00:00-24:00, saturday : 00:00-24:00, sunday : 00:00-24:00",33.951021,-98.529274,,,,,
399,Sulphur Springs Supercenter,https://www.cymbalstore.com/store/417/sulphur-springs-tx/details,1750 S Broadway St,Sulphur Springs,TX,75482,US,903-439-3144,,,,,,,"monday - friday : 00:00-24:00, saturday : 00:00-24:00, sunday : 00:00-24:00",33.105801,-95.595268,,,,,
400,Pratt Supercenter,https://www.cymbalstore.com/store/419/pratt-ks/details,2003 E 1st St,Pratt,KS,67124,US,620-672-7548,,,,,,,"monday - friday : 00:00-24:00, saturday : 00:00-24:00, sunday : 00:00-24:00",37.644053,-98.713481,,,,,
401,Alabaster Supercenter,https://www.cymbalstore.com/store/423/alabaster-al/details,630 Colonial Promenade Pkwy,Alabaster,AL,35007,US,205-620-0360,,,,,,,"monday - friday : 06:00-24:00, saturday : 06:00-24:00, sunday : 06:00-24:00",33.2355308,-86.801229,,,,,
402,Robinson Supercenter,https://www.cymbalstore.com/store/422/robinson-il/details,1304 E Main St,Robinson,IL,62454,US,618-546-5676,,,,,,,"monday - friday : 00:00-24:00, saturday : 00:00-24:00, sunday : 00:00-24:00",39.0087859,-87.7238588,,,,,
403,Decatur Supercenter,https://www.cymbalstore.com/store/421/decatur-tx/details,800 S Highway 287,Decatur,TX,76234,US,940-627-5546,,,,,,,"monday - friday : 00:00-24:00, saturday : 00:00-24:00, sunday : 00:00-24:00",33.228422,-97.597203,,,,,
404,Brent Supercenter,https://www.cymbalstore.com/store/425/brent-al/details,10675 Highway 5,Brent,AL,35034,US,205-926-4878,,,,,,,"monday - friday : 06:00-23:00, saturday : 06:00-23:00, sunday : 06:00-23:00",32.963956,-87.171887,,,,,
